ICAO	STATION	REGION	COUNTRY	ELEVATION	LATITUDE	LONGITUDE	TIMESTAMP	TEMPERATURE	DEWPOINT	HUMIDITY	VISIBILITY_QUAL	VISIBILITY	WIND_DIR	WIND_DEG	WIND_SPEED	GUST_SPEED
LATI	Tirana		Albania	89.0	41.333	19.783	Tue Apr 06 07:00:00 PDT 2004	18.0	13.0	72	BEYOND	10000.0	SW	230	5.144444444444445	5.144444444444445
DAAY	Mecheria		Algeria	1149.0	34.933	-0.433	Tue Apr 06 08:00:00 PDT 2004	22.0	-1.0	21	AT	7000.0	WNW	290	8.231111111111112	8.231111111111112
DAAD	Bou-Saada		Algeria	461.0	35.333	4.2	Tue Apr 06 08:00:00 PDT 2004	25.0	6.0	29	BEYOND	10000.0	N	0	0.0	0.0
DABS	Tebessa		Algeria	813.0	35.483	8.133	Tue Apr 06 08:00:00 PDT 2004	22.0	5.0	32	BEYOND	10000.0	W	280	5.144444444444445	5.144444444444445
DAUH	Hassi-Messaoud		Algeria	142.0	31.667	6.15	Tue Apr 06 08:00:00 PDT 2004	28.0	-4.0	12	BEYOND	10000.0	SW	220	3.086666666666667	3.086666666666667
DAOO	Oran / Es Senia		Algeria	90.0	35.633	-0.6	Tue Apr 06 08:00:00 PDT 2004	21.0	13.0	60	BEYOND	10000.0	N	0	6.173333333333334	6.173333333333334
DAUT	Timimoun		Algeria	312.0	29.25	0.283	Tue Apr 06 08:00:00 PDT 2004	30.0	-2.0	12	BEYOND	10000.0	NE	50	4.630000000000001	4.630000000000001
DAUL	Laghouat		Algeria	765.0	33.767	2.933	Tue Apr 06 08:00:00 PDT 2004	26.0	-1.0	16	BEYOND	10000.0	NW	310	7.202222222222223	7.202222222222223
DAUE	El Golea		Algeria	397.0	30.567	2.867	Tue Apr 06 06:00:00 PDT 2004	27.0	0.0	17	BEYOND	10000.0	N	0	0.0	0.0
DAUZ	In Amenas		Algeria	562.0	28.05	9.633	Tue Apr 06 08:00:00 PDT 2004	26.0	1.0	19	BEYOND	10000.0	N	0	0.0	0.0
DAAT	Tamanrasset / Aguenna		Algeria	1377.0	22.817	5.467	Tue Apr 06 08:00:00 PDT 2004	27.0	-7.0	10	BEYOND	10000.0	W	270	3.086666666666667	3.086666666666667
DABC	Constantine		Algeria	694.0	36.283	6.617	Tue Apr 06 08:00:00 PDT 2004	20.0	6.0	39	BEYOND	10000.0	NW	320	5.144444444444445	5.144444444444445
DAUG	Ghardaia		Algeria	450.0	32.383	3.817	Tue Apr 06 08:00:00 PDT 2004	26.0	10.0	36	BEYOND	10000.0	NW	320	5.144444444444445	5.144444444444445
DAUO	El Oued		Algeria	63.0	33.5	6.117	Tue Apr 06 08:00:00 PDT 2004	28.0	5.0	22	BEYOND	10000.0	SSE	160	7.716666666666667	7.716666666666667
DAUU	Ouargla		Algeria	141.0	31.917	5.4	Tue Apr 06 08:00:00 PDT 2004	28.0	6.0	24	BEYOND	10000.0	SSW	210	3.086666666666667	3.086666666666667
DAAV	Jijel Achouat		Algeria	2.0	36.883	5.817	Tue Apr 06 08:00:00 PDT 2004	19.0	11.0	59	BEYOND	10000.0	NW	320	5.658888888888889	5.658888888888889
DAOB	Tiaret		Algeria	1127.0	35.25	1.433	Tue Apr 06 08:00:00 PDT 2004	21.0	-2.0	21	BEYOND	10000.0	WNW	290	6.173333333333334	6.173333333333334
DAAP	Illizi		Algeria	558.0	26.5	8.417	Tue Apr 06 08:00:00 PDT 2004	30.0	5.0	20	BEYOND	10000.0	N	0	0.0	0.0
DAUK	Touggourt		Algeria	85.0	33.117	6.133	Tue Apr 06 08:00:00 PDT 2004	28.0	2.0	18	BEYOND	10000.0	SW	220	9.260000000000002	9.260000000000002
DAUB	Biskra		Algeria	87.0	34.8	5.733	Tue Apr 06 08:00:00 PDT 2004	25.0	5.0	27	BEYOND	10000.0	SSE	150	1.5433333333333334	1.5433333333333334
DAOF	Tindouf		Algeria	431.0	27.667	-8.133	Tue Apr 06 06:00:00 PDT 2004	30.0	1.0	15	BEYOND	10000.0	SSE	150	3.086666666666667	3.086666666666667
DAAS	Setif		Algeria	1038.0	36.183	5.417	Tue Apr 06 08:00:00 PDT 2004	20.0	7.0	42	BEYOND	10000.0	WSW	240	5.144444444444445	5.144444444444445
DAON	Tlemcen Zenata		Algeria	247.0	35.017	-1.467	Tue Apr 06 08:00:00 PDT 2004	24.0	10.0	40	BEYOND	10000.0	NNW	340	3.086666666666667	3.086666666666667
DAAE	Bejaia		Algeria	2.0	36.717	5.067	Tue Apr 06 08:00:00 PDT 2004	18.0	14.0	77	BEYOND	10000.0	ESE	120	4.115555555555556	4.115555555555556
DABB	Annaba		Algeria	4.0	36.833	7.817	Tue Apr 06 08:00:00 PDT 2004	18.0	12.0	68	BEYOND	10000.0	NE	40	7.202222222222223	7.202222222222223
DAAJ	Djanet		Algeria	1054.0	24.55	9.467	Tue Apr 06 08:00:00 PDT 2004	27.0	1.0	18	BEYOND	10000.0	W	270	2.5722222222222224	2.5722222222222224
DABT	Batna		Algeria	1052.0	35.55	6.183	Tue Apr 06 08:00:00 PDT 2004	22.0	1.0	24	BEYOND	10000.0	WSW	250	3.086666666666667	3.086666666666667
DAAG	Dar-El-Beida		Algeria	25.0	36.717	3.25	Tue Apr 06 08:00:00 PDT 2004	21.0	10.0	49	BEYOND	10000.0	NNW	340	2.057777777777778	2.057777777777778
FNLU	Luanda		Angola	74.0	-8.85	13.233	Mon Apr 05 15:00:00 PDT 2004	22.0	20.0	88	BEYOND	10000.0	N	359	1.5433333333333334	1.5433333333333334
TAPA	Vc Bird International Airport Antigua		Antigua and Barbuda	8.0	17.117	-61.783	Tue Apr 06 08:00:00 PDT 2004	28.0	22.0	69	BEYOND	10000.0	ESE	120	6.687777777777779	6.687777777777779
SAZY	Chapelco		Argentina	779.0	-40.083	-71.133	Tue Apr 06 08:00:00 PDT 2004	11.0	5.0	66	BEYOND	10000.0	WSW	250	9.260000000000002	9.260000000000002
SAAP	Parana Aerodrome		Argentina	74.0	-31.783	-60.483	Tue Apr 06 08:00:00 PDT 2004	20.0	19.0	94	BEYOND	10000.0	ESE	110	5.144444444444445	5.144444444444445
SADP	El Palomar Aerodrome		Argentina	18.0	-34.6	-58.6	Tue Apr 06 07:00:00 PDT 2004	20.0	20.0	100	BEYOND	10000.0	ENE	70	1.5433333333333334	1.5433333333333334
SAVT	Trelew Aerodrome		Argentina	39.0	-43.2	-65.267	Tue Apr 06 08:00:00 PDT 2004	21.0	2.0	28	BEYOND	10000.0	WSW	250	10.28888888888889	10.28888888888889
SAME	Mendoza Aerodrome		Argentina	705.0	-32.833	-68.783	Tue Apr 06 08:00:00 PDT 2004	25.0	9.0	36	BEYOND	10000.0	S	180	5.144444444444445	5.144444444444445
SANU	San Juan Aerodrome		Argentina	597.0	-31.567	-68.867	Tue Apr 06 08:00:00 PDT 2004	25.0	13.0	47	BEYOND	10000.0	SSE	160	7.202222222222223	7.202222222222223
SAMM	Malargue Aerodrome		Argentina	1426.0	-35.5	-69.583	Mon Apr 05 05:00:00 PDT 2004	13.0	11.0	87	AT	2000.0	SW	230	3.086666666666667	3.086666666666667
SANT	Tucuman Aerodrome		Argentina	440.0	-26.85	-65.1	Tue Apr 06 08:00:00 PDT 2004	30.0	23.0	65	BEYOND	10000.0	N	0	1.5433333333333334	1.5433333333333334
SABE	Aeroparque Bs. As. Aerodrome		Argentina	6.0	-34.567	-58.417	Tue Apr 06 08:00:00 PDT 2004	23.0	19.0	78	BEYOND	10000.0	NE	50	5.658888888888889	5.658888888888889
SARC	Corrientes Aero.		Argentina	62.0	-27.45	-58.767	Tue Apr 06 08:00:00 PDT 2004	33.0	23.0	55	BEYOND	10000.0	NNE	20	7.202222222222223	7.202222222222223
SAAC	Concordia Aerodrome		Argentina	35.0	-31.3	-58.017	Tue Apr 06 08:00:00 PDT 2004	30.0	20.0	54	BEYOND	10000.0	S	180	19.034444444444446	19.034444444444446
SAWE	Rio Grande B. A.		Argentina	13.0	-53.8	-67.75	Tue Apr 06 08:00:00 PDT 2004	8.0	6.0	87	BEYOND	10000.0	WNW	290	6.687777777777779	6.687777777777779
SANE	Santiago Del Estero Aero.		Argentina	198.0	-27.767	-64.3	Tue Apr 06 08:00:00 PDT 2004	32.0	23.0	58	BEYOND	10000.0	N	0	2.057777777777778	2.057777777777778
SAVV	Viedma Aerodrome		Argentina	6.0	-40.85	-63.017	Tue Apr 06 08:00:00 PDT 2004	22.0	10.0	46	BEYOND	10000.0	NW	320	5.144444444444445	5.144444444444445
SAZS	Bariloche Aerodrome		Argentina	845.0	-41.15	-71.167	Tue Apr 06 08:00:00 PDT 2004	9.0	2.0	61	AT	8000.0	W	270	13.375555555555557	20.57777777777778
SAWG	Rio Gallegos Aerodrome		Argentina	20.0	-51.617	-69.283	Tue Apr 06 08:00:00 PDT 2004	14.0	0.0	38	BEYOND	10000.0	WNW	290	7.716666666666667	7.716666666666667
SAZN	Neuquen Aerodrome		Argentina	270.0	-38.95	-68.133	Tue Apr 06 08:00:00 PDT 2004	21.0	5.0	35	BEYOND	10000.0	W	270	6.687777777777779	6.687777777777779
SANC	Catamarca Aero.		Argentina	454.0	-28.6	-65.767	Tue Apr 06 08:00:00 PDT 2004	32.0	20.0	48	BEYOND	10000.0	SW	230	4.115555555555556	4.115555555555556
SAEZ	Ezeiza Aerodrome		Argentina	20.0	-34.817	-58.533	Tue Apr 06 08:00:00 PDT 2004	23.0	19.0	78	BEYOND	10000.0	NNE	20	5.144444444444445	5.144444444444445
SAWH	Ushuaia Aerodrome		Argentina	16.0	-54.8	-68.317	Tue Apr 06 08:00:00 PDT 2004	11.0	6.0	71	BEYOND	10000.0	NNE	20	1.028888888888889	1.028888888888889
SAVC	Comodoro Rivadavia Aerodrome		Argentina	58.0	-45.783	-67.5	Tue Apr 06 08:00:00 PDT 2004	16.0	-4.0	25	BEYOND	10000.0	WNW	290	14.404444444444445	23.664444444444445
SAMR	San Rafael Aerodrome		Argentina	745.0	-34.583	-68.4	Tue Apr 06 08:00:00 PDT 2004	24.0	9.0	38	BEYOND	10000.0	S	180	2.5722222222222224	2.5722222222222224
SARF	Formosa Aerodrome		Argentina	59.0	-26.2	-58.233	Tue Apr 06 08:00:00 PDT 2004	32.0	24.0	62	BEYOND	10000.0	NNE	20	4.115555555555556	4.115555555555556
SANL	La Rioja Aero.		Argentina	438.0	-29.383	-66.817	Tue Apr 06 08:00:00 PDT 2004	30.0	24.0	70	BEYOND	10000.0	N	0	0.0	0.0
SACO	Cordoba Aerodrome		Argentina	484.0	-31.317	-64.217	Tue Apr 06 08:00:00 PDT 2004	20.0	18.0	88	AT	6000.0	SSW	200	5.144444444444445	5.144444444444445
SASJ	Jujuy Aerodrome		Argentina	921.0	-24.383	-65.083	Tue Apr 06 08:00:00 PDT 2004	28.0	21.0	65	BEYOND	10000.0	E	90	2.5722222222222224	2.5722222222222224
SAOR	Villa Reynolds Aerodrome		Argentina	485.0	-33.733	-65.383	Tue Apr 06 08:00:00 PDT 2004	25.0	19.0	69	BEYOND	10000.0	E	90	5.144444444444445	5.144444444444445
SAAR	Rosario Aerodrome		Argentina	25.0	-32.917	-60.783	Tue Apr 06 08:00:00 PDT 2004	21.0	19.0	88	BEYOND	10000.0	NE	50	4.115555555555556	4.115555555555556
SAOU	San Luis Aerodrome		Argentina	710.0	-33.267	-66.35	Tue Apr 06 08:00:00 PDT 2004	26.0	18.0	61	BEYOND	10000.0	WSW	250	2.057777777777778	2.057777777777778
SARI	Iguazu Aerodrome		Argentina	270.0	-25.733	-54.467	Tue Apr 06 08:00:00 PDT 2004	30.0	23.0	65	BEYOND	10000.0	N	0	0.0	0.0
SAVE	Esquel Aerodrome		Argentina	789.0	-42.933	-71.15	Tue Apr 06 08:00:00 PDT 2004	6.0	4.0	87	BEYOND	10000.0	W	270	5.144444444444445	5.144444444444445
SAAJ	Junin Aerodrome		Argentina	82.0	-34.55	-60.917	Tue Apr 06 08:00:00 PDT 2004	21.0	19.0	88	BEYOND	10000.0	N	0	4.630000000000001	4.630000000000001
SAZR	Santa Rosa Aerodrome		Argentina	190.0	-36.567	-64.267	Tue Apr 06 08:00:00 PDT 2004	22.0	16.0	68	BEYOND	10000.0	E	99	1.028888888888889	1.028888888888889
SADD	Don Torcuato Aerodrome		Argentina	5.0	-34.483	-58.617	Tue Apr 06 07:00:00 PDT 2004	21.0	20.0	94	BEYOND	10000.0	N	0	1.5433333333333334	1.5433333333333334
SAZB	Bahia Blanca Aerodrome		Argentina	75.0	-38.733	-62.167	Tue Apr 06 08:00:00 PDT 2004	23.0	17.0	68	BEYOND	10000.0	N	0	0.0	0.0
SAOC	Rio Cuarto Aerodrome		Argentina	420.0	-33.117	-64.233	Tue Apr 06 08:00:00 PDT 2004	20.0	17.0	83	BEYOND	10000.0	N	0	3.086666666666667	3.086666666666667
SARL	Paso De Los Libres Aerodrome		Argentina	69.0	-29.683	-57.15	Tue Apr 06 08:00:00 PDT 2004	32.0	22.0	55	BEYOND	10000.0	NE	50	5.144444444444445	5.144444444444445
SAZM	Mar Del Plata Aerodrome		Argentina	18.0	-37.933	-57.583	Tue Apr 06 08:00:00 PDT 2004	22.0	18.0	78	BEYOND	10000.0	WSW	250	1.028888888888889	1.028888888888889
SAAV	Sauce Viejo Aerodrome		Argentina	17.0	-31.7	-60.817	Tue Apr 06 08:00:00 PDT 2004	21.0	19.0	88	BEYOND	10000.0	SSE	160	8.231111111111112	8.231111111111112
SASA	Salta Aerodrome		Argentina	1238.0	-24.85	-65.483	Tue Apr 06 08:00:00 PDT 2004	26.0	19.0	65	BEYOND	10000.0	NE	50	1.5433333333333334	1.5433333333333334
SARE	Resistencia Aero.		Argentina	53.0	-27.45	-59.05	Tue Apr 06 08:00:00 PDT 2004	34.0	23.0	52	BEYOND	10000.0	N	0	5.658888888888889	5.658888888888889
SARP	Posadas Aero.		Argentina	131.0	-27.367	-55.967	Tue Apr 06 08:00:00 PDT 2004	32.0	21.0	51	BEYOND	10000.0	N	0	4.630000000000001	4.630000000000001
SAST	Tartagal Aerodrome		Argentina	450.0	-22.65	-63.817	Tue Apr 06 03:00:00 PDT 2004	23.0	21.0	88	BEYOND	10000.0	N	0	0.0	0.0
TNCA	Queen Beatrix Airport		Aruba	18.0	12.5	-70.017	Tue Apr 06 07:00:00 PDT 2004	30.0	23.0	65	BEYOND	10000.0	E	90	10.28888888888889	10.28888888888889
YSCB	Canberra		Australia	575.0	-35.3	149.183	Tue Apr 06 08:00:00 PDT 2004	11.0	8.0	82	 	0	WSW	250	2.057777777777778	2.057777777777778
YBMA	Mount Isa Amo		Australia	342.0	-20.667	139.467	Tue Apr 06 08:00:00 PDT 2004	27.0	12.0	39	 	0	ESE	110	2.5722222222222224	2.5722222222222224
YSTW	Tamworth Airport		Australia	410.0	-31.083	150.833	Tue Apr 06 08:00:00 PDT 2004	17.0	13.0	77	 	0	S	170	4.115555555555556	4.115555555555556
YPPD	Port Hedland Pardoo		Australia	9.0	-20.1	119.567	Tue Apr 06 08:00:00 PDT 2004	28.0	21.0	65	 	0	SSE	160	3.6011111111111114	3.6011111111111114
YBTL	Townsville Amo		Australia	6.0	-19.25	146.75	Tue Apr 06 08:00:00 PDT 2004	25.0	18.0	64	 	0	SE	130	5.658888888888889	5.658888888888889
YPPH	Belmont Perth Airport		Australia	20.0	-31.933	115.95	Tue Apr 06 08:00:00 PDT 2004	22.0	5.0	32	BEYOND	10000.0	E	100	7.716666666666667	7.716666666666667
YSRI	Richmond Aus-Afb		Australia	21.0	-33.6	150.783	Tue Apr 06 08:00:00 PDT 2004	18.0	17.0	94	 	0	N	0	0.0	0.0
YPTN	Tindal / Katherine		Australia	108.0	-14.433	132.267	Tue Apr 06 08:00:00 PDT 2004	25.0	24.0	94	 	0	N	0	0.0	0.0
YBAS	Alice Springs Aerodrome		Australia	545.0	-23.8	133.883	Tue Apr 06 08:00:00 PDT 2004	19.0	6.0	42	 	0	SSE	160	3.086666666666667	3.086666666666667
YSWG	Wagga Airport		Australia	221.0	-35.15	147.45	Tue Apr 06 08:00:00 PDT 2004	14.0	13.0	94	 	0	N	0	0.0	0.0
YSNF	Norfolk Island Airport		Australia	113.0	-29.033	167.933	Tue Apr 06 08:00:00 PDT 2004	18.0	8.0	51	 	0	S	170	4.115555555555556	4.115555555555556
YBBN	Brisbane Airport M. O		Australia	4.0	-27.383	153.1	Tue Apr 06 08:00:00 PDT 2004	20.0	19.0	94	BEYOND	10000.0	SSW	200	3.086666666666667	3.086666666666667
YPDN	Darwin Airport		Australia	31.0	-12.4	130.867	Tue Apr 06 08:00:00 PDT 2004	27.0	25.0	89	BEYOND	10000.0	N	0	0.0	0.0
YMAV	Avalon, Avalon Airport		Australia	8.0	-38.033	144.483	Tue Apr 06 08:00:00 PDT 2004	11.0	8.0	82	 	0	WNW	300	3.086666666666667	3.086666666666667
YPLM	Learmonth Airport		Australia	5.0	-22.233	114.083	Tue Apr 06 08:00:00 PDT 2004	29.0	18.0	51	 	0	SW	220	3.6011111111111114	3.6011111111111114
YMML	Melbourne Airport		Australia	132.0	-37.667	144.833	Tue Apr 06 08:00:00 PDT 2004	11.0	9.0	87	AT	8000.0	W	260	2.057777777777778	2.057777777777778
YBCG	Coolangatta Airport Aws		Australia	6.0	-28.167	153.5	Tue Apr 06 08:00:00 PDT 2004	19.0	18.0	94	 	0	S	180	2.057777777777778	2.057777777777778
YBRK	Rockhampton Airport		Australia	10.0	-23.383	150.467	Tue Apr 06 08:00:00 PDT 2004	20.0	18.0	88	 	0	SE	130	3.6011111111111114	3.6011111111111114
YBRM	Broome Airport		Australia	17.0	-17.95	122.217	Tue Apr 06 08:00:00 PDT 2004	27.0	24.0	83	BEYOND	10000.0	N	0	0.0	0.0
YPAD	Adelaide Airport		Australia	6.0	-34.933	138.517	Tue Apr 06 08:00:00 PDT 2004	16.0	9.0	63	BEYOND	10000.0	ESE	120	6.173333333333334	6.173333333333334
YBCS	Cairns Airport		Australia	3.0	-16.883	145.75	Tue Apr 06 08:00:00 PDT 2004	24.0	21.0	83	BEYOND	10000.0	SE	140	6.173333333333334	6.173333333333334
YMHB	Hobart Airport		Australia	4.0	-42.833	147.483	Tue Apr 06 08:00:00 PDT 2004	11.0	0.0	46	BEYOND	10000.0	SW	230	6.687777777777779	6.687777777777779
YPEA	Bullsbrook Pearce Amo		Australia	45.0	-31.667	116.017	Tue Apr 06 08:00:00 PDT 2004	22.0	6.0	35	 	0	E	90	6.687777777777779	6.687777777777779
YSSY	Sydney Airport		Australia	6.0	-33.95	151.183	Tue Apr 06 08:00:00 PDT 2004	19.0	18.0	94	BEYOND	10000.0	W	270	2.057777777777778	2.057777777777778
YSDU	Dubbo		Australia	275.0	-32.2	148.567	Tue Apr 06 08:00:00 PDT 2004	20.0	14.0	68	 	0	SE	140	3.6011111111111114	3.6011111111111114
LOWK	Klagenfurt-Flughafen		Austria	448.0	46.65	14.333	Tue Apr 06 07:50:00 PDT 2004	7.0	4.0	81	BEYOND	10000.0	ESE	110	2.057777777777778	2.057777777777778
LOWS	Salzburg-Flughafen		Austria	430.0	47.8	13.0	Tue Apr 06 07:50:00 PDT 2004	6.0	3.0	81	BEYOND	10000.0	NNW	330	4.115555555555556	4.115555555555556
LOXA	Aigen Im Ennstal		Austria	638.0	47.533	14.133	Tue Apr 06 07:50:00 PDT 2004	6.0	4.0	87	BEYOND	10000.0	N	359	1.028888888888889	1.028888888888889
LOXT	Tulln		Austria	175.0	48.317	16.117	Tue Apr 06 07:50:00 PDT 2004	11.0	5.0	66	BEYOND	10000.0	WSW	240	6.687777777777779	6.687777777777779
LOWG	Graz-Thalerhof-Flughafen		Austria	340.0	47.0	15.433	Tue Apr 06 07:50:00 PDT 2004	7.0	5.0	87	BEYOND	10000.0	SE	140	2.5722222222222224	2.5722222222222224
LOWZ	Zell Am See		Austria	754.0	47.292	12.788	Tue Apr 06 08:00:00 PDT 2004	5.0	3.0	87	AT	10000.0	W	270	3.086666666666667	3.086666666666667
LOWW	Wien / Schwechat-Flughafen		Austria	183.0	48.117	16.567	Tue Apr 06 07:50:00 PDT 2004	11.0	5.0	66	BEYOND	10000.0	SSW	200	7.202222222222223	7.202222222222223
LOWL	Linz / Hoersching-Flughafen		Austria	298.0	48.233	14.183	Tue Apr 06 07:50:00 PDT 2004	7.0	6.0	93	AT	5000.0	W	280	9.774444444444445	19.034444444444446
LOXZ	Zeltweg		Austria	677.0	47.2	14.75	Tue Apr 06 07:50:00 PDT 2004	5.0	2.0	81	BEYOND	10000.0	N	0	0.0	0.0
LOWI	Innsbruck-Flughafen		Austria	581.0	47.267	11.35	Tue Apr 06 07:50:00 PDT 2004	10.0	6.0	76	BEYOND	10000.0	N	359	1.5433333333333334	1.5433333333333334
UBBB	Baku / Bine Airport		Azerbaijan	-6.0	40.45	50.067	Tue Apr 06 08:00:00 PDT 2004	9.0	5.0	76	BEYOND	10000.0	S	190	9.260000000000002	9.260000000000002
MYNN	Nassau Airport		Bahamas	3.0	25.05	-77.467	Tue Apr 06 08:00:00 PDT 2004	24.0	13.0	49	BEYOND	10000.0	E	80	4.630000000000001	4.630000000000001
MYGF	Freeport, Grand Bahama		Bahamas	2.0	26.55	-78.7	Tue Apr 06 08:00:00 PDT 2004	24.0	14.0	53	BEYOND	10000.0	NE	40	6.173333333333334	6.173333333333334
MYEG	Georgetown, Exuma		Bahamas	2.0	23.475	-75.767	Tue Apr 06 08:10:00 PDT 2004	27.0	15.0	47	BEYOND	10000.0	E	80	2.5722222222222224	2.5722222222222224
OBBI	Bahrain International Airport		Bahrain	2.0	26.267	50.65	Tue Apr 06 08:00:00 PDT 2004	22.0	12.0	52	BEYOND	10000.0	N	350	5.658888888888889	5.658888888888889
TBPB	Grantley Adams		Barbados	50.0	13.067	-59.483	Tue Apr 06 08:00:00 PDT 2004	30.0	24.0	70	BEYOND	10000.0	E	100	7.716666666666667	7.716666666666667
EVRA	Riga Airport		Belarus	10.0	56.917	23.967	Tue Apr 06 07:50:00 PDT 2004	5.0	2.0	81	BEYOND	10000.0	N	10	2.057777777777778	2.057777777777778
UMII	Vitebsk		Belarus	176.0	55.167	30.217	Tue Apr 06 08:00:00 PDT 2004	14.0	-2.0	33	 	0	N	359	2.0	2.0
UMBB	Brest		Belarus	143.0	52.108	23.897	Tue Apr 06 08:00:00 PDT 2004	12.0	3.0	54	BEYOND	10000.0	NW	310	4.0	4.0
UMGG	Gomel'		Belarus	144.0	52.527	31.018	Tue Apr 06 08:00:00 PDT 2004	15.0	2.0	41	BEYOND	10000.0	ESE	120	4.0	4.0
UMMS	Minsk		Belarus	234.0	53.933	27.633	Tue Apr 06 08:00:00 PDT 2004	12.0	7.0	71	AT	8000.0	NNE	30	1.0	1.0
UMMM	Loshitsa / Minsk International 1		Belarus	228.0	53.865	27.542	Tue Apr 06 08:00:00 PDT 2004	11.0	6.0	71	BEYOND	10000.0	NE	50	2.0	2.0
EBFS	Florennes		Belgium	279.0	50.233	4.65	Tue Apr 06 07:08:00 PDT 2004	5.0	2.0	81	BEYOND	10000.0	WNW	290	5.658888888888889	5.658888888888889
EBCV	Chievres		Belgium	60.0	50.567	3.833	Tue Apr 06 03:32:00 PDT 2004	5.0	3.0	87	AT	7000.0	W	280	6.687777777777779	6.687777777777779
EBAW	Antwerpen / Deurne		Belgium	12.0	51.2	4.467	Tue Apr 06 06:50:00 PDT 2004	9.0	4.0	71	BEYOND	10000.0	W	280	5.658888888888889	5.658888888888889
EBBL	Kleine Brogel		Belgium	55.0	51.167	5.467	Tue Apr 06 05:53:00 PDT 2004	11.0	4.0	62	BEYOND	10000.0	W	270	5.658888888888889	5.658888888888889
EBLB	Elsenborn		Belgium	564.0	50.467	6.183	Tue Apr 06 07:46:00 PDT 2004	4.0	2.0	87	AT	4500.0	WSW	250	4.115555555555556	4.115555555555556
EBBE	Beauvechain		Belgium	105.0	50.75	4.767	Tue Apr 06 08:10:00 PDT 2004	9.0	1.0	57	BEYOND	10000.0	NW	310	4.115555555555556	4.115555555555556
EBCI	Charleroi / Gosselies		Belgium	187.0	50.467	4.45	Tue Apr 06 06:50:00 PDT 2004	6.0	3.0	81	BEYOND	10000.0	WSW	240	4.630000000000001	4.630000000000001
EBBT	Brasschaat		Belgium	22.0	51.333	4.5	Tue Apr 06 08:17:00 PDT 2004	8.0	4.0	76	BEYOND	10000.0	W	260	2.057777777777778	2.057777777777778
EBFN	Koksijde		Belgium	4.0	51.083	2.65	Tue Apr 06 05:23:00 PDT 2004	8.0	5.0	81	BEYOND	10000.0	W	280	7.716666666666667	7.716666666666667
EBLG	Bierset		Belgium	186.0	50.65	5.45	Tue Apr 06 06:50:00 PDT 2004	7.0	5.0	87	BEYOND	10000.0	W	270	6.173333333333334	6.173333333333334
EBDT	Schaffen		Belgium	30.0	51.0	5.067	Tue Apr 06 06:21:00 PDT 2004	7.0	2.0	70	BEYOND	10000.0	WSW	250	5.144444444444445	5.144444444444445
EBOS	Oostende Airport		Belgium	4.0	51.2	2.867	Tue Apr 06 06:50:00 PDT 2004	9.0	3.0	66	BEYOND	10000.0	W	280	7.202222222222223	7.202222222222223
EBBR	Bruxelles National		Belgium	55.0	50.9	4.533	Tue Apr 06 06:50:00 PDT 2004	8.0	3.0	70	BEYOND	10000.0	NW	320	5.658888888888889	5.658888888888889
MZBZ	Belize / Phillip Goldston Intl. Airport		Belize	5.0	17.533	-88.3	Tue Apr 06 07:00:00 PDT 2004	28.0	24.0	78	BEYOND	10000.0	ESE	120	5.144444444444445	5.144444444444445
DBBB	Cotonou		Benin	5.0	6.35	2.383	Tue Apr 06 08:00:00 PDT 2004	31.0	27.0	79	BEYOND	10000.0	SW	220	4.630000000000001	4.630000000000001
TXKF	Bermuda		Bermuda	6.0	32.367	-64.683	Tue Apr 06 07:55:00 PDT 2004	17.0	5.0	45	BEYOND	10000.0	WNW	290	12.346666666666668	20.063333333333336
SLYA	Yacuiba		Bolivia	645.0	-21.95	-63.65	Tue Apr 06 08:00:00 PDT 2004	29.0	25.0	79	BEYOND	10000.0	N	0	2.5722222222222224	2.5722222222222224
SLCB	Cochabamba		Bolivia	2548.0	-17.417	-66.183	Tue Apr 06 06:00:00 PDT 2004	21.0	14.0	64	BEYOND	10000.0	N	0	0.0	0.0
SLLP	La Paz / Alto		Bolivia	4058.0	-16.517	-68.183	Tue Apr 06 07:00:00 PDT 2004	11.0	3.0	57	BEYOND	10000.0	N	359	1.028888888888889	1.028888888888889
SLCP	Concepcion		Bolivia	497.0	-16.15	-62.017	Tue Apr 06 08:00:00 PDT 2004	29.0	22.0	65	BEYOND	10000.0	N	0	6.173333333333334	6.173333333333334
SLSU	Sucre		Bolivia	2904.0	-19.017	-65.3	Tue Apr 06 08:00:00 PDT 2004	21.0	11.0	52	BEYOND	10000.0	N	0	0.0	0.0
SLMG	Magdalena		Bolivia	140.0	-13.333	-64.117	Tue Apr 06 08:00:00 PDT 2004	30.0	24.0	70	BEYOND	10000.0	NW	320	5.144444444444445	5.144444444444445
SLJE	San Jose De Chiquitos		Bolivia	284.0	-17.8	-60.733	Tue Apr 06 08:00:00 PDT 2004	32.0	22.0	55	BEYOND	10000.0	NNW	330	5.144444444444445	5.144444444444445
SLCO	Cobija		Bolivia	235.0	-11.033	-68.783	Tue Apr 06 08:00:00 PDT 2004	28.0	25.0	83	BEYOND	10000.0	NNW	330	2.5722222222222224	2.5722222222222224
SLPS	Puerto Suarez		Bolivia	134.0	-18.983	-57.817	Tue Apr 06 08:00:00 PDT 2004	30.0	24.0	70	BEYOND	10000.0	N	0	2.057777777777778	2.057777777777778
SLVR	Viru-Viru		Bolivia	373.0	-17.633	-63.133	Tue Apr 06 04:00:00 PDT 2004	23.0	22.0	94	AT	3000.0	N	350	8.231111111111112	8.231111111111112
SLRB	Robore		Bolivia	276.0	-18.317	-59.767	Tue Apr 06 08:00:00 PDT 2004	29.0	24.0	74	BEYOND	10000.0	N	0	3.086666666666667	3.086666666666667
SLSA	Santa Ana		Bolivia	144.0	-13.767	-65.433	Tue Apr 06 08:00:00 PDT 2004	29.0	25.0	79	BEYOND	10000.0	NW	320	6.173333333333334	6.173333333333334
SLRI	Riberalta		Bolivia	141.0	-11.0	-66.117	Tue Apr 06 08:00:00 PDT 2004	29.0	24.0	74	BEYOND	10000.0	N	0	3.086666666666667	3.086666666666667
SLRY	Reyes		Bolivia	140.0	-14.317	-67.383	Tue Apr 06 08:00:00 PDT 2004	29.0	25.0	79	BEYOND	10000.0	NW	320	3.086666666666667	3.086666666666667
SLOR	Oruro		Bolivia	3072.0	-17.967	-67.067	Tue Apr 06 08:00:00 PDT 2004	17.0	5.0	45	BEYOND	10000.0	N	0	0.0	0.0
SLCA	Camiri		Bolivia	798.0	-20.0	-63.533	Tue Apr 06 08:00:00 PDT 2004	28.0	22.0	69	BEYOND	10000.0	N	0	0.0	0.0
SLVM	Villamontes		Bolivia	398.0	-21.25	-63.45	Tue Apr 06 08:00:00 PDT 2004	31.0	25.0	70	BEYOND	10000.0	S	180	1.5433333333333334	1.5433333333333334
SLSI	San Ignacio De Velasco		Bolivia	413.0	-16.383	-60.967	Tue Apr 06 08:00:00 PDT 2004	29.0	22.0	65	BEYOND	10000.0	N	0	5.144444444444445	5.144444444444445
SLET	Santa Cruz / El Trompillo		Bolivia	418.0	-17.8	-63.183	Tue Apr 06 08:00:00 PDT 2004	23.0	22.0	94	AT	3000.0	N	350	7.716666666666667	7.716666666666667
SLTJ	Tarija		Bolivia	1854.0	-21.55	-64.7	Tue Apr 06 08:00:00 PDT 2004	24.0	16.0	60	BEYOND	10000.0	N	0	0.0	0.0
SLPO	Potosi		Bolivia	3935.0	-19.55	-65.733	Tue Apr 06 08:00:00 PDT 2004	15.0	1.0	38	BEYOND	10000.0	N	0	0.0	0.0
FBSW	Shakawe		Botswana	1032.0	-18.367	21.85	Tue Apr 06 08:00:00 PDT 2004	26.0	21.0	73	BEYOND	10000.0	N	0	0.0	0.0
FBTS	Tsabong		Botswana	960.0	-26.05	22.45	Tue Apr 06 08:00:00 PDT 2004	29.0	15.0	42	BEYOND	10000.0	N	0	0.0	0.0
FBSP	Selebi Phikwe		Botswana	892.0	-22.055	27.82	Tue Apr 06 08:00:00 PDT 2004	25.0	23.0	88	BEYOND	10000.0	E	90	2.057777777777778	2.057777777777778
FBSK	Seretse Khama International Airport		Botswana	1005.0	-24.217	25.917	Tue Apr 06 08:00:00 PDT 2004	21.0	20.0	94	BEYOND	10000.0	SSW	210	1.5433333333333334	1.5433333333333334
FBLT	Letlhakane		Botswana	986.0	-21.417	25.6	Tue Apr 06 08:00:00 PDT 2004	30.0	18.0	48	BEYOND	10000.0	N	0	0.0	0.0
FBGZ	Ghanzi		Botswana	1131.0	-21.7	21.65	Tue Apr 06 08:00:00 PDT 2004	26.0	20.0	69	BEYOND	10000.0	N	359	1.028888888888889	1.028888888888889
FBSN	Sua-Pan		Botswana	903.0	-20.467	25.983	Tue Apr 06 08:00:00 PDT 2004	31.0	20.0	51	BEYOND	10000.0	N	0	0.0	0.0
FBJW	Jwaneng		Botswana	1189.0	-24.6	24.667	Tue Apr 06 08:00:00 PDT 2004	22.0	19.0	83	BEYOND	10000.0	SSE	160	3.6011111111111114	3.6011111111111114
FBFT	Francistown		Botswana	1001.0	-21.217	27.5	Tue Apr 06 08:00:00 PDT 2004	20.0	19.0	94	BEYOND	10000.0	N	0	2.057777777777778	2.057777777777778
FBKE	Kasane		Botswana	968.0	-17.817	25.15	Tue Apr 06 08:00:00 PDT 2004	27.0	20.0	65	BEYOND	10000.0	W	270	2.5722222222222224	2.5722222222222224
FBMN	Maun		Botswana	945.0	-19.983	23.417	Tue Apr 06 07:00:00 PDT 2004	29.0	20.0	58	BEYOND	10000.0	N	0	0.0	0.0
SBBR	Brasilia Aeroporto		Brazil	1061.0	-15.867	-47.933	Tue Apr 06 08:00:00 PDT 2004	28.0	21.0	65	BEYOND	10000.0	E	80	5.144444444444445	5.144444444444445
SBTF	Tefe		Brazil	47.0	-3.367	-64.683	Tue Apr 06 08:00:00 PDT 2004	31.0	26.0	74	BEYOND	10000.0	ENE	60	2.5722222222222224	2.5722222222222224
SBFI	Foz Do Iguacu Aeroporto		Brazil	180.0	-25.517	-54.583	Tue Apr 06 08:00:00 PDT 2004	31.0	20.0	51	BEYOND	10000.0	N	350	5.144444444444445	5.144444444444445
SBBV	Boa Vista Aeropor-To		Brazil	140.0	2.833	-60.7	Tue Apr 06 08:00:00 PDT 2004	30.0	22.0	61	BEYOND	10000.0	E	90	4.115555555555556	4.115555555555556
SBCF	Belo Horizonte		Brazil	850.0	-19.933	-43.933	Tue Apr 06 08:00:00 PDT 2004	25.0	22.0	83	BEYOND	10000.0	WSW	250	1.5433333333333334	1.5433333333333334
SBBE	Belem Aeroporto		Brazil	16.0	-1.383	-48.483	Tue Apr 06 08:00:00 PDT 2004	30.0	26.0	79	BEYOND	10000.0	NW	310	2.057777777777778	2.057777777777778
SBTE	Teresina Aeroporto		Brazil	69.0	-5.05	-42.817	Tue Apr 06 08:00:00 PDT 2004	30.0	25.0	74	BEYOND	10000.0	ESE	120	2.057777777777778	2.057777777777778
SBKP	Campinas Aeroporto		Brazil	661.0	-23.0	-47.133	Tue Apr 06 08:00:00 PDT 2004	27.0	22.0	74	BEYOND	10000.0	NNE	20	3.6011111111111114	3.6011111111111114
SBMO	Maceio Aeroporto		Brazil	117.0	-9.517	-35.783	Tue Apr 06 08:00:00 PDT 2004	30.0	24.0	70	BEYOND	10000.0	ESE	120	3.086666666666667	3.086666666666667
SBRF	Recife Aeroporto		Brazil	19.0	-8.067	-34.85	Tue Apr 06 08:00:00 PDT 2004	31.0	21.0	54	BEYOND	10000.0	SSE	150	2.5722222222222224	2.5722222222222224
SBCR	Corumba		Brazil	130.0	-19.083	-57.5	Tue Apr 06 08:00:00 PDT 2004	30.0	22.0	61	BEYOND	10000.0	WNW	290	2.5722222222222224	2.5722222222222224
SBPP	Ponta Pora Aeropor-To		Brazil	660.0	-22.55	-55.7	Tue Apr 06 08:00:00 PDT 2004	29.0	21.0	61	BEYOND	10000.0	WSW	240	5.144444444444445	5.144444444444445
SBGL	Galeao		Brazil	6.0	-22.817	-43.25	Tue Apr 06 08:00:00 PDT 2004	30.0	24.0	70	AT	8000.0	SE	130	2.5722222222222224	2.5722222222222224
SBSL	Sao Luiz Aeroporto		Brazil	53.0	-2.6	-44.233	Tue Apr 06 08:00:00 PDT 2004	32.0	26.0	70	BEYOND	10000.0	SSE	160	4.115555555555556	4.115555555555556
SBPV	Porto Velho Aeroporto		Brazil	102.0	-8.767	-63.917	Tue Apr 06 08:00:00 PDT 2004	29.0	28.0	94	BEYOND	10000.0	NE	50	2.057777777777778	2.057777777777778
SBCT	Curitiba Aeroporto		Brazil	908.0	-25.517	-49.167	Tue Apr 06 08:00:00 PDT 2004	24.0	19.0	73	BEYOND	10000.0	N	350	3.086666666666667	3.086666666666667
SBCJ	Carajas / Maraba		Brazil	621.0	-6.117	-50.0	Tue Apr 06 08:00:00 PDT 2004	26.0	24.0	88	AT	8000.0	E	100	1.028888888888889	1.028888888888889
SBMQ	Macapa		Brazil	15.0	0.033	-50.05	Tue Apr 06 08:00:00 PDT 2004	29.0	25.0	79	BEYOND	10000.0	E	90	1.028888888888889	1.028888888888889
SBRB	Rio Branco		Brazil	142.0	-10.0	-67.8	Tue Apr 06 08:00:00 PDT 2004	28.0	28.0	100	BEYOND	10000.0	N	10	3.086666666666667	3.086666666666667
SBMA	Maraba		Brazil	95.0	-5.35	-49.15	Tue Apr 06 08:00:00 PDT 2004	31.0	24.0	66	BEYOND	10000.0	NNE	30	1.028888888888889	1.028888888888889
SBPK	Pelotas		Brazil	13.0	-31.867	-52.35	Tue Apr 06 08:00:00 PDT 2004	29.0	21.0	61	BEYOND	10000.0	ENE	60	4.115555555555556	4.115555555555556
SBGR	Guarulhos Civ / Mil		Brazil	750.0	-23.433	-46.467	Tue Apr 06 08:00:00 PDT 2004	25.0	20.0	73	AT	9000.0	N	0	3.086666666666667	3.086666666666667
SBCG	Campo Grande Aeroporto		Brazil	567.0	-20.467	-54.667	Tue Apr 06 08:00:00 PDT 2004	31.0	22.0	58	BEYOND	10000.0	WNW	300	5.144444444444445	5.144444444444445
SBCZ	Cruzeiro Do Sul		Brazil	170.0	-7.633	-72.667	Tue Apr 06 08:00:00 PDT 2004	31.0	24.0	66	BEYOND	10000.0	N	0	0.0	0.0
SBFL	Florianopolis Aeroporto		Brazil	5.0	-27.667	-48.55	Tue Apr 06 08:00:00 PDT 2004	27.0	21.0	69	BEYOND	10000.0	E	80	2.057777777777778	2.057777777777778
SBLO	Londrina Aeroporto		Brazil	569.0	-23.333	-51.133	Tue Apr 06 08:00:00 PDT 2004	26.0	23.0	83	BEYOND	10000.0	SSW	210	1.028888888888889	1.028888888888889
SBSP	Sao Paulo Aeropor-To		Brazil	803.0	-23.617	-46.65	Tue Apr 06 08:20:00 PDT 2004	25.0	19.0	69	AT	8000.0	NNW	330	5.144444444444445	5.144444444444445
SBSN	Santarem-Aeroporto		Brazil	72.0	-2.433	-54.717	Tue Apr 06 08:00:00 PDT 2004	29.0	25.0	79	BEYOND	10000.0	E	80	3.086666666666667	3.086666666666667
SBUG	Uruguaiana Aeroporto		Brazil	74.0	-29.783	-57.033	Tue Apr 06 08:00:00 PDT 2004	32.0	23.0	58	BEYOND	10000.0	N	350	2.5722222222222224	2.5722222222222224
SBNT	Natal Aeroporto		Brazil	52.0	-5.917	-35.25	Tue Apr 06 08:00:00 PDT 2004	33.0	23.0	55	BEYOND	10000.0	S	170	6.687777777777779	6.687777777777779
SBFZ	Fortaleza Aeropor-To		Brazil	25.0	-3.783	-38.533	Tue Apr 06 08:00:00 PDT 2004	30.0	23.0	65	BEYOND	10000.0	SE	130	4.630000000000001	4.630000000000001
SBCY	Cuiaba Aeroporto		Brazil	187.0	-15.65	-56.1	Tue Apr 06 08:00:00 PDT 2004	32.0	25.0	66	BEYOND	10000.0	N	10	5.144444444444445	5.144444444444445
SBTT	Tabatinga		Brazil	85.0	-3.667	-69.667	Tue Apr 06 08:00:00 PDT 2004	28.0	24.0	78	BEYOND	10000.0	W	270	2.057777777777778	2.057777777777778
SBBG	Bage Aeroporto		Brazil	180.0	-31.35	-54.117	Tue Apr 06 08:00:00 PDT 2004	30.0	23.0	65	BEYOND	10000.0	N	350	2.5722222222222224	2.5722222222222224
SBRJ	Rio De Janeiro Aeroporto		Brazil	3.0	-22.9	-43.167	Tue Apr 06 08:00:00 PDT 2004	28.0	23.0	74	AT	8000.0	SSE	160	5.144444444444445	5.144444444444445
SBSV	Salvador Aeroporto		Brazil	6.0	-12.9	-38.333	Tue Apr 06 08:00:00 PDT 2004	31.0	22.0	58	BEYOND	10000.0	SE	140	2.5722222222222224	2.5722222222222224
FJDG	Diego Garcia		British Indian Ocean Territory	1.0	-7.3	72.4	Tue Apr 06 07:50:00 PDT 2004	28.0	25.0	83	BEYOND	10000.0	SE	140	3.086666666666667	3.086666666666667
WBSB	Brunei Airport		Brunei Darussalam	22.0	4.933	114.933	Tue Apr 06 07:00:00 PDT 2004	27.0	25.0	89	BEYOND	10000.0	N	0	0.0	0.0
LBSF	Sofia Observ.		Bulgaria	586.0	42.65	23.383	Tue Apr 06 08:00:00 PDT 2004	17.0	4.0	42	BEYOND	10000.0	NNW	330	3.0	3.0
LBGO	Gorna Orechovista		Bulgaria	NaN	43.15	25.6	Tue Apr 06 08:00:00 PDT 2004	19.0	9.0	52	BEYOND	10000.0	S	180	1.0	1.0
LBBG	Burgas		Bulgaria	16.0	42.483	27.483	Tue Apr 06 08:00:00 PDT 2004	18.0	7.0	48	BEYOND	10000.0	SE	140	5.0	5.0
LBPD	Plovdiv		Bulgaria	179.0	42.133	24.75	Tue Apr 06 08:00:00 PDT 2004	22.0	4.0	30	BEYOND	10000.0	N	359	1.0	1.0
LBWN	Varna		Bulgaria	41.0	43.2	27.917	Tue Apr 06 08:00:00 PDT 2004	15.0	12.0	82	AT	8000.0	ESE	120	3.0	3.0
DFOO	Bobo-Dioulasso		Burkina Faso	460.0	11.167	-4.317	Tue Apr 06 07:00:00 PDT 2004	38.0	13.0	22	BEYOND	10000.0	WNW	300	2.057777777777778	2.057777777777778
DFFD	Ouagadougou		Burkina Faso	316.0	12.35	-1.517	Tue Apr 06 07:00:00 PDT 2004	40.0	10.0	16	BEYOND	10000.0	N	359	2.5722222222222224	2.5722222222222224
HBBA	Bujumbura		Burundi	782.0	-3.317	29.317	Tue Apr 06 07:00:00 PDT 2004	26.0	22.0	78	 	0	N	0	0.0	0.0
VDPP	Phnom-Penh / Pochentong		Cambodia	10.0	11.55	104.85	Tue Apr 06 03:30:00 PDT 2004	33.0	24.0	58	AT	8000.0	SE	130	4.630000000000001	4.630000000000001
FKKR	Garoua		Cameroon	242.0	9.333	13.383	Tue Apr 06 06:00:00 PDT 2004	40.0	20.0	31	BEYOND	10000.0	SW	220	6.173333333333334	6.173333333333334
FKYS	Yaounde		Cameroon	751.0	3.833	11.517	Mon Apr 05 14:00:00 PDT 2004	24.0	24.0	100	BEYOND	10000.0	WSW	250	2.057777777777778	2.057777777777778
FKKD	Douala Obs.		Cameroon	10.0	4.0	9.733	Tue Apr 06 07:00:00 PDT 2004	24.0	23.0	94	BEYOND	10000.0	NE	40	2.057777777777778	2.057777777777778
CYXJ	Fort St John, B. C.		Canada	695.0	56.233	-120.733	Tue Apr 06 08:00:00 PDT 2004	2.0	-2.0	75	BEYOND	10000.0	WSW	240	5.144444444444445	5.144444444444445
CWUW	Dewar Lakes, N. W. T.		Canada	518.0	68.65	-71.167	Tue Apr 06 08:00:00 PDT 2004	-24.0	NaN	-1	BEYOND	10000.0	 	0	0	0
CYMA	Mayo Airport		Canada	504.0	63.617	-135.867	Tue Apr 06 08:00:00 PDT 2004	-4.0	-8.0	74	BEYOND	10000.0	N	0	4.630000000000001	4.630000000000001
CYCX	Gagetown Can-Mil		Canada	51.0	45.833	-66.433	Tue Apr 06 08:00:00 PDT 2004	0.0	-5.0	69	AT	8046.72	WNW	290	6.173333333333334	6.173333333333334
CYYU	Kapuskasing, Ont.		Canada	227.0	49.417	-82.467	Tue Apr 06 08:00:00 PDT 2004	-1.0	-12.0	43	BEYOND	10000.0	SE	130	2.5722222222222224	2.5722222222222224
CYYB	North Bay, Ont.		Canada	358.0	46.35	-79.433	Tue Apr 06 08:00:00 PDT 2004	-2.0	-15.0	36	BEYOND	10000.0	SSE	150	1.028888888888889	1.028888888888889
CYDP	Nain, Nfld		Canada	6.0	56.55	-61.683	Tue Apr 06 08:00:00 PDT 2004	-6.0	-9.0	79	BEYOND	10000.0	NNW	330	9.774444444444445	12.346666666666668
CYPA	Prince Albert, Sask.		Canada	428.0	53.217	-105.683	Tue Apr 06 08:00:00 PDT 2004	5.0	-3.0	56	BEYOND	10000.0	W	270	1.5433333333333334	1.5433333333333334
CYGW	Kuujjuarapik, Que.		Canada	21.0	55.283	-77.767	Tue Apr 06 08:00:00 PDT 2004	-9.0	-20.0	41	BEYOND	10000.0	NE	50	1.5433333333333334	1.5433333333333334
CYFR	Fort Resolution		Canada	164.0	61.183	-113.683	Tue Apr 06 08:00:00 PDT 2004	-14.0	-17.0	78	BEYOND	10000.0	NW	320	6.173333333333334	6.173333333333334
CYEL	Elliot Lake Supplementary Aviation Weather Reporting Station		Canada	329.0	46.35	-82.567	Tue Apr 06 08:00:00 PDT 2004	-2.0	-5.0	80	BEYOND	10000.0	E	100	1.028888888888889	1.028888888888889
CYQK	Kenora, Ont.		Canada	407.0	49.783	-94.367	Tue Apr 06 08:00:00 PDT 2004	9.0	-2.0	46	BEYOND	10000.0	NNW	330	5.144444444444445	5.144444444444445
CYQT	Thunder Bay, Ont.		Canada	199.0	48.367	-89.317	Tue Apr 06 08:00:00 PDT 2004	8.0	0.0	57	BEYOND	10000.0	W	280	3.6011111111111114	3.6011111111111114
CYQG	Windsor, Ont.		Canada	190.0	42.267	-82.967	Tue Apr 06 08:00:00 PDT 2004	6.0	-3.0	52	BEYOND	10000.0	SSW	200	1.5433333333333334	1.5433333333333334
CYYH	Spence Bay Airport		Canada	28.0	69.55	-93.583	Tue Apr 06 08:00:00 PDT 2004	-29.0	-32.0	76	BEYOND	10000.0	NNE	30	1.028888888888889	1.028888888888889
CYIV	Island Lake, Man.		Canada	237.0	53.85	-94.65	Tue Apr 06 08:00:00 PDT 2004	3.0	-3.0	65	BEYOND	10000.0	W	280	4.115555555555556	4.115555555555556
CYEN	Estevan, Sask.		Canada	572.0	49.217	-102.967	Tue Apr 06 08:00:00 PDT 2004	9.0	-1.0	49	BEYOND	10000.0	ESE	110	3.086666666666667	3.086666666666667
CYUA	Shingle Point, Y. T.		Canada	56.0	68.95	-137.217	Tue Apr 06 08:00:00 PDT 2004	-22.0	NaN	-1	BEYOND	10000.0	WNW	300	3.6011111111111114	3.6011111111111114
CYBB	Pelly Bay Airport		Canada	15.0	68.533	-89.817	Tue Apr 06 08:00:00 PDT 2004	-30.0	-34.0	69	BEYOND	10000.0	N	0	0.0	0.0
CYPX	Povungnituq		Canada	23.0	60.05	-77.283	Tue Apr 06 08:00:00 PDT 2004	-22.0	-25.0	77	BEYOND	10000.0	E	90	2.5722222222222224	2.5722222222222224
CYQD	The Pas, Man.		Canada	271.0	53.967	-101.1	Tue Apr 06 08:00:00 PDT 2004	5.0	-5.0	48	BEYOND	10000.0	WNW	290	1.028888888888889	1.028888888888889
CYFC	Fredericton, N. B.		Canada	17.0	45.867	-66.533	Tue Apr 06 08:00:00 PDT 2004	0.0	-2.0	86	AT	8046.72	W	280	5.144444444444445	8.745555555555557
CYCS	Chesterfield Inlet		Canada	11.0	63.333	-90.717	Mon Apr 05 14:00:00 PDT 2004	-14.0	-16.0	85	BEYOND	10000.0	ESE	110	6.173333333333334	6.173333333333334
CYWL	Williams Lake, B. C.		Canada	940.0	52.183	-122.05	Tue Apr 06 08:00:00 PDT 2004	1.0	-8.0	51	BEYOND	10000.0	N	350	1.028888888888889	1.028888888888889
CYQX	Gander Int. Airport, Nfld.		Canada	151.0	48.95	-54.567	Tue Apr 06 08:00:00 PDT 2004	5.0	4.0	93	AT	201.168	ESE	120	8.231111111111112	8.231111111111112
CWHN	Jimmy Lake		Canada	658.0	54.917	-109.95	Tue Apr 06 08:00:00 PDT 2004	0.0	-7.0	59	BEYOND	10000.0	E	90	1.028888888888889	1.028888888888889
CYLD	Chapleau, Ont.		Canada	447.0	47.817	-83.35	Tue Apr 06 08:00:00 PDT 2004	-2.0	-8.0	64	BEYOND	10000.0	S	170	3.086666666666667	3.086666666666667
CYNM	Matagami, Que.		Canada	281.0	49.767	-77.817	Tue Apr 06 08:00:00 PDT 2004	-6.0	-17.0	42	BEYOND	10000.0	W	270	2.5722222222222224	2.5722222222222224
CYXE	Saskatoon, Sask.		Canada	501.0	52.167	-106.683	Tue Apr 06 08:00:00 PDT 2004	7.0	-2.0	53	BEYOND	10000.0	NW	320	1.028888888888889	1.028888888888889
CYDC	Princeton Airport		Canada	700.0	49.467	-120.517	Tue Apr 06 08:00:00 PDT 2004	1.0	-1.0	86	BEYOND	10000.0	N	0	0.0	0.0
CYYL	Lynn Lake, Man.		Canada	357.0	56.867	-101.083	Tue Apr 06 08:00:00 PDT 2004	-2.0	-8.0	64	BEYOND	10000.0	NW	310	6.173333333333334	6.173333333333334
CWXR	Croker River, N. W. T.		Canada	69.0	69.267	-119.217	Tue Apr 06 08:00:00 PDT 2004	-22.0	NaN	-1	 	0	SE	130	7.716666666666667	7.716666666666667
CYMM	Fort Mcmurray, Alta.		Canada	369.0	56.65	-111.217	Tue Apr 06 08:00:00 PDT 2004	0.0	-4.0	74	BEYOND	10000.0	W	270	1.5433333333333334	1.5433333333333334
CYGE	Golden Airport		Canada	785.0	51.3	-116.983	Tue Apr 06 08:00:00 PDT 2004	-1.0	-3.0	86	BEYOND	10000.0	N	350	3.086666666666667	3.086666666666667
CYZU	Whitecourt, Alta.		Canada	783.0	54.15	-115.783	Tue Apr 06 08:00:00 PDT 2004	3.0	0.0	81	BEYOND	10000.0	WNW	290	3.086666666666667	3.086666666666667
CYSN	Saint Catharines Airport		Canada	98.0	43.2	-79.167	Tue Apr 06 08:00:00 PDT 2004	4.0	-6.0	48	BEYOND	10000.0	SW	230	5.144444444444445	5.144444444444445
CYLT	Alert Airport		Canada	31.0	82.517	-62.283	Tue Apr 06 08:00:00 PDT 2004	-29.0	-34.0	63	BEYOND	10000.0	WNW	290	2.057777777777778	2.057777777777778
CYBX	Blanc Sablon, Que.		Canada	30.0	51.45	-57.183	Tue Apr 06 08:00:00 PDT 2004	2.0	1.0	93	BEYOND	10000.0	ENE	60	12.346666666666668	12.346666666666668
CYQH	Watson Lake, Y. T.		Canada	690.0	60.117	-128.817	Tue Apr 06 08:00:00 PDT 2004	-7.0	-10.0	79	BEYOND	10000.0	N	0	0.0	0.0
CYVC	La Ronge, Sask		Canada	375.0	55.15	-105.267	Tue Apr 06 08:00:00 PDT 2004	4.0	-5.0	52	BEYOND	10000.0	NW	310	5.144444444444445	5.144444444444445
CYWA	Petawawa, Ont.		Canada	130.0	45.95	-77.317	Tue Apr 06 08:00:00 PDT 2004	-1.0	-18.0	26	BEYOND	10000.0	NW	310	3.6011111111111114	7.716666666666667
CYSR	Nanisivik Airport		Canada	649.0	72.983	-84.633	Tue Apr 06 08:00:00 PDT 2004	-24.0	-28.0	70	BEYOND	10000.0	NW	310	2.057777777777778	2.057777777777778
CYKY	Kindersley, Sask.		Canada	694.0	51.517	-109.167	Tue Apr 06 08:00:00 PDT 2004	5.0	-6.0	45	BEYOND	10000.0	S	180	1.5433333333333334	1.5433333333333334
CYSB	Sudbury, Ont.		Canada	348.0	46.617	-80.8	Tue Apr 06 08:00:00 PDT 2004	-1.0	-15.0	34	BEYOND	10000.0	S	180	2.5722222222222224	2.5722222222222224
CYDB	Burwash Airport		Canada	807.0	61.367	-139.033	Tue Apr 06 08:00:00 PDT 2004	-3.0	-8.0	68	BEYOND	10000.0	ESE	120	5.144444444444445	5.144444444444445
CYBV	Berens River Airport		Canada	222.0	52.35	-97.033	Tue Apr 06 08:00:00 PDT 2004	1.0	-2.0	80	BEYOND	10000.0	W	270	3.6011111111111114	3.6011111111111114
CYKQ	Waskaganish Airport		Canada	23.0	51.483	-78.75	Tue Apr 06 08:00:00 PDT 2004	-12.0	-19.0	56	BEYOND	10000.0	N	0	0.0	0.0
CYZX	Greenwood, N. S.		Canada	28.0	44.983	-64.917	Tue Apr 06 08:00:00 PDT 2004	0.0	-1.0	93	BEYOND	10000.0	W	270	6.687777777777779	6.687777777777779
CYPH	Inukjuak Airport Supplementary Aviation Weather Reporting Station		Canada	25.0	58.467	-78.083	Tue Apr 06 08:00:00 PDT 2004	-19.0	-22.0	77	BEYOND	10000.0	E	100	6.173333333333334	6.173333333333334
CWFD	Cape Dyer, N. W. T.		Canada	393.0	66.583	-61.617	Tue Apr 06 08:00:00 PDT 2004	-21.0	NaN	-1	BEYOND	10000.0	 	0	0	0
CYMT	Chibougamau-Chapais, Que		Canada	388.0	49.767	-74.533	Tue Apr 06 08:00:00 PDT 2004	-5.0	-13.0	54	BEYOND	10000.0	NNW	330	5.658888888888889	5.658888888888889
CYSJ	Saint John, N. B.		Canada	103.0	45.333	-65.883	Tue Apr 06 08:00:00 PDT 2004	0.0	-3.0	80	BEYOND	10000.0	WNW	300	4.115555555555556	4.115555555555556
CWZZ	Saglek Bay		Canada	483.0	58.333	-62.583	Tue Apr 06 08:00:00 PDT 2004	-14.0	NaN	-1	AT	1005.84	N	10	13.89	13.89
CYKG	Kangiqsujuaq Supplementary Aviation Weather Reporting Station		Canada	151.0	61.583	-71.933	Tue Apr 06 08:00:00 PDT 2004	-18.0	-22.0	71	BEYOND	10000.0	NNW	330	1.5433333333333334	1.5433333333333334
CYMU	Umiujaq		Canada	71.0	56.533	-76.517	Tue Apr 06 08:00:00 PDT 2004	-16.0	-18.0	85	BEYOND	10000.0	E	100	11.317777777777778	14.404444444444445
CWSW	Sparwood / Elk Valley		Canada	1138.0	49.75	-114.883	Tue Apr 06 08:00:00 PDT 2004	-2.0	-4.0	86	BEYOND	10000.0	N	10	2.5722222222222224	2.5722222222222224
CYXY	Whitehorse, Y. T.		Canada	703.0	60.717	-135.067	Tue Apr 06 08:00:00 PDT 2004	-3.0	-8.0	68	BEYOND	10000.0	S	180	5.658888888888889	5.658888888888889
CYGP	Gaspe, Que.		Canada	33.0	48.767	-64.483	Tue Apr 06 08:00:00 PDT 2004	0.0	0.0	100	AT	603.504	E	90	1.5433333333333334	1.5433333333333334
CYZS	Coral Harbour, N. W. T.		Canada	64.0	64.2	-83.367	Tue Apr 06 08:00:00 PDT 2004	-21.0	-26.0	65	BEYOND	10000.0	NNE	30	4.630000000000001	4.630000000000001
CYHA	Quaqtaq Airport		Canada	30.0	61.05	-69.633	Tue Apr 06 08:00:00 PDT 2004	-17.0	-19.0	85	BEYOND	10000.0	WNW	290	2.5722222222222224	2.5722222222222224
CYPR	Prince Rupert, B. C.		Canada	34.0	54.3	-130.433	Tue Apr 06 08:00:00 PDT 2004	4.0	3.0	93	BEYOND	10000.0	N	0	0.0	0.0
CYDA	Dawson, Y. T.		Canada	370.0	64.05	-139.133	Tue Apr 06 08:00:00 PDT 2004	-6.0	-9.0	79	BEYOND	10000.0	NNE	30	2.5722222222222224	2.5722222222222224
CWEU	Eureka, N. W. T.		Canada	10.0	79.983	-85.933	Tue Apr 06 08:00:00 PDT 2004	-33.0	-38.0	62	BEYOND	10000.0	E	80	1.028888888888889	1.028888888888889
CYKJ	Key Lake		Canada	509.0	57.25	-105.617	Tue Apr 06 08:00:00 PDT 2004	-4.0	-8.0	74	BEYOND	10000.0	NW	310	3.6011111111111114	3.6011111111111114
CWTU	Tukialik Bay, Nfld.		Canada	683.0	54.717	-58.35	Tue Apr 06 08:00:00 PDT 2004	-2.0	NaN	-1	 	0	 	0	0	0
CYAD	La Grande Iii Supplementary Aviation Weather Reporting Station		Canada	233.0	53.567	-76.2	Tue Apr 06 08:00:00 PDT 2004	-9.0	-18.0	48	BEYOND	10000.0	E	80	3.086666666666667	3.086666666666667
CYQY	Sydney, N. S.		Canada	56.0	46.167	-60.05	Tue Apr 06 08:00:00 PDT 2004	2.0	-2.0	75	BEYOND	10000.0	SSE	160	4.630000000000001	4.630000000000001
CYAW	Shearwater, N. S.		Canada	51.0	44.633	-63.5	Tue Apr 06 08:00:00 PDT 2004	0.0	-2.0	86	BEYOND	10000.0	SW	230	5.658888888888889	8.231111111111112
CYHZ	Halifax International Airport		Canada	145.0	44.883	-63.5	Tue Apr 06 08:00:00 PDT 2004	-1.0	-3.0	86	BEYOND	10000.0	SW	220	6.687777777777779	6.687777777777779
CYPE	Peace River, Alta.		Canada	571.0	56.233	-117.433	Tue Apr 06 08:00:00 PDT 2004	2.0	-8.0	47	BEYOND	10000.0	N	350	5.144444444444445	5.144444444444445
CYYR	Goose, Nfld.		Canada	46.0	53.317	-60.417	Tue Apr 06 08:00:00 PDT 2004	-1.0	-4.0	80	AT	8046.72	N	350	5.658888888888889	5.658888888888889
CYSD	Suffield Airport		Canada	770.0	50.267	-111.183	Tue Apr 06 08:00:00 PDT 2004	7.0	-2.0	53	BEYOND	10000.0	SSW	210	2.5722222222222224	2.5722222222222224
CYYF	Penticton, B. C.		Canada	344.0	49.467	-119.6	Tue Apr 06 08:00:00 PDT 2004	7.0	2.0	70	BEYOND	10000.0	N	350	3.086666666666667	3.086666666666667
CYXT	Terrace, B. C.		Canada	217.0	54.467	-128.583	Tue Apr 06 08:00:00 PDT 2004	2.0	-1.0	80	BEYOND	10000.0	NNE	20	6.173333333333334	9.260000000000002
CYXD	Edmonton Municipal Alta.		Canada	671.0	53.567	-113.517	Tue Apr 06 08:00:00 PDT 2004	5.0	-3.0	56	BEYOND	10000.0	NNW	330	11.317777777777778	16.976666666666667
CYPG	Portage Southport A		Canada	269.0	49.9	-98.267	Tue Apr 06 08:00:00 PDT 2004	8.0	-1.0	53	BEYOND	10000.0	W	260	4.115555555555556	4.115555555555556
CYZH	Slave Lake, Alta		Canada	581.0	55.3	-114.783	Tue Apr 06 08:00:00 PDT 2004	0.0	-5.0	69	BEYOND	10000.0	NNW	340	2.057777777777778	2.057777777777778
CYQI	Yarmouth, N. S.		Canada	43.0	43.833	-66.083	Tue Apr 06 08:00:00 PDT 2004	0.0	-4.0	74	BEYOND	10000.0	WNW	290	6.173333333333334	6.173333333333334
CYRB	Resolute, N. W. T.		Canada	67.0	74.717	-94.983	Tue Apr 06 08:00:00 PDT 2004	-30.0	-35.0	63	BEYOND	10000.0	N	0	0.0	0.0
CYZF	Yellowknife, N. W. T.		Canada	205.0	62.467	-114.45	Tue Apr 06 08:00:00 PDT 2004	-15.0	-19.0	72	BEYOND	10000.0	NNW	330	2.5722222222222224	2.5722222222222224
CYMH	Mary's Harbour		Canada	11.0	52.3	-55.85	Tue Apr 06 08:00:00 PDT 2004	1.0	0.0	93	AT	3218.688	E	90	2.057777777777778	2.057777777777778
CYJT	Stephenville, Nfld.		Canada	8.0	48.533	-58.55	Tue Apr 06 08:00:00 PDT 2004	6.0	5.0	93	BEYOND	10000.0	NE	50	2.5722222222222224	2.5722222222222224
CYYE	Fort Nelson, B. C.		Canada	382.0	58.833	-122.583	Tue Apr 06 08:00:00 PDT 2004	0.0	-6.0	64	BEYOND	10000.0	SSW	200	1.5433333333333334	1.5433333333333334
CYFO	Flin Flon Airport		Canada	304.0	54.683	-101.683	Tue Apr 06 08:00:00 PDT 2004	5.0	-5.0	48	BEYOND	10000.0	NNW	330	2.5722222222222224	2.5722222222222224
CYZR	Sarnia Airport		Canada	181.0	43.0	-82.317	Tue Apr 06 08:00:00 PDT 2004	3.0	-4.0	60	BEYOND	10000.0	SSE	160	2.5722222222222224	2.5722222222222224
CYQA	Muskoka, Ont.		Canada	280.0	44.967	-79.3	Tue Apr 06 08:00:00 PDT 2004	0.0	-17.0	27	BEYOND	10000.0	W	270	3.6011111111111114	3.6011111111111114
CYFS	Fort Simpson, N. W. T.		Canada	168.0	61.75	-121.233	Tue Apr 06 08:00:00 PDT 2004	-7.0	-10.0	79	BEYOND	10000.0	NW	310	1.5433333333333334	1.5433333333333334
CYXP	Pangnirtung Airport		Canada	23.0	66.15	-65.717	Tue Apr 06 08:00:00 PDT 2004	-25.0	-30.0	64	BEYOND	10000.0	W	270	1.5433333333333334	1.5433333333333334
CYXN	Whale Cove Airport		Canada	20.0	62.233	-92.6	Tue Apr 06 08:00:00 PDT 2004	-15.0	-18.0	78	BEYOND	10000.0	ENE	70	8.745555555555557	11.832222222222223
CYZT	Port Hardy, B. C.		Canada	22.0	50.683	-127.367	Tue Apr 06 08:00:00 PDT 2004	2.0	1.0	93	BEYOND	10000.0	W	260	1.028888888888889	1.028888888888889
CYAH	La Grande Iv, Que.		Canada	306.0	53.75	-73.667	Tue Apr 06 08:00:00 PDT 2004	-14.0	-20.0	61	BEYOND	10000.0	NNE	30	3.086666666666667	3.086666666666667
CYGV	Havre St Pierre		Canada	33.0	50.283	-63.617	Tue Apr 06 08:00:00 PDT 2004	4.0	3.0	93	AT	3218.688	NE	50	5.144444444444445	5.144444444444445
CWLX	Longstaff Bluff, N. W. T.		Canada	162.0	68.883	-75.133	Tue Apr 06 08:00:00 PDT 2004	-26.0	NaN	-1	 	0	 	0	0	0
CYEG	Edmonton International, Alta.		Canada	715.0	53.3	-113.583	Tue Apr 06 08:00:00 PDT 2004	5.0	-5.0	48	BEYOND	10000.0	NNW	340	12.346666666666668	15.433333333333334
CWLI	Liverpool Bay		Canada	102.0	69.6	-130.9	Tue Apr 06 08:00:00 PDT 2004	-15.0	NaN	-1	 	0	SE	130	6.687777777777779	6.687777777777779
CYLJ	Meadow Lake, Sask.		Canada	480.0	54.133	-108.517	Tue Apr 06 08:00:00 PDT 2004	2.0	-1.0	80	BEYOND	10000.0	W	280	1.5433333333333334	1.5433333333333334
CYCY	Clyde, N. W. T.		Canada	25.0	70.483	-68.517	Tue Apr 06 08:00:00 PDT 2004	-20.0	-23.0	77	AT	4023.36	NW	310	9.774444444444445	9.774444444444445
CYHE	Hope, B. C.		Canada	39.0	49.367	-121.483	Tue Apr 06 08:00:00 PDT 2004	8.0	3.0	70	BEYOND	10000.0	E	90	3.6011111111111114	3.6011111111111114
CYWH	Victoria Harbour		Canada	5.0	48.417	-123.333	Tue Apr 06 08:00:00 PDT 2004	7.0	6.0	93	BEYOND	10000.0	N	0	0.0	0.0
CYTE	Cape Dorset, N. W. T.		Canada	51.0	64.217	-76.533	Tue Apr 06 08:00:00 PDT 2004	-19.0	-20.0	92	BEYOND	10000.0	W	260	1.5433333333333334	1.5433333333333334
CYMO	Moosonee, Ont.		Canada	10.0	51.267	-80.65	Tue Apr 06 08:00:00 PDT 2004	-7.0	-14.0	58	BEYOND	10000.0	ENE	70	3.086666666666667	3.086666666666667
CYHK	Gjoa Haven Airport		Canada	46.0	68.633	-95.85	Tue Apr 06 08:00:00 PDT 2004	-28.0	-32.0	69	BEYOND	10000.0	NE	40	4.630000000000001	4.630000000000001
CYNE	Norway House, Man.		Canada	223.0	53.967	-97.833	Tue Apr 06 08:00:00 PDT 2004	8.0	-3.0	45	BEYOND	10000.0	N	0	0.0	0.0
CZBF	Bathurst Airport Aviation Weather Reporting Station		Canada	59.0	47.633	-65.75	Tue Apr 06 08:00:00 PDT 2004	0.0	0.0	100	AT	2011.68	NNE	30	3.086666666666667	3.086666666666667
CYGL	La Grande Riviere, Que		Canada	195.0	53.633	-77.7	Tue Apr 06 08:00:00 PDT 2004	-12.0	-20.0	52	BEYOND	10000.0	ENE	60	2.5722222222222224	2.5722222222222224
CYHY	Hay River, N. W. T.		Canada	164.0	60.833	-115.783	Tue Apr 06 09:00:00 PDT 2004	-7.0	-10.0	79	BEYOND	10000.0	NW	320	3.6011111111111114	3.6011111111111114
CYUB	Tuktoyaktuk		Canada	5.0	69.45	-133.017	Tue Apr 06 09:00:00 PDT 2004	-18.0	-21.0	78	BEYOND	10000.0	ESE	110	3.6011111111111114	3.6011111111111114
CYBK	Baker Lake, N. W. T.		Canada	18.0	64.3	-96.083	Tue Apr 06 09:00:00 PDT 2004	-21.0	-25.0	71	BEYOND	10000.0	E	90	6.173333333333334	6.173333333333334
CYKD	Aklavik Airport		Canada	7.0	68.217	-135.0	Tue Apr 06 09:00:00 PDT 2004	-13.0	-18.0	66	BEYOND	10000.0	SSE	150	3.086666666666667	3.086666666666667
CYQZ	Quesnel Airport		Canada	545.0	53.033	-122.517	Tue Apr 06 09:00:00 PDT 2004	3.0	-5.0	56	BEYOND	10000.0	N	0	0.0	0.0
CYOW	Ottawa Int'L. Ont.		Canada	116.0	45.317	-75.667	Tue Apr 06 09:00:00 PDT 2004	-1.0	-11.0	47	BEYOND	10000.0	WNW	290	6.173333333333334	9.774444444444445
CYGH	Fort Good Hope Airport		Canada	60.0	66.267	-128.617	Tue Apr 06 09:00:00 PDT 2004	-11.0	-13.0	85	BEYOND	10000.0	NNE	30	2.5722222222222224	2.5722222222222224
CYND	Gatineau Airport		Canada	64.0	45.517	-75.567	Tue Apr 06 09:00:00 PDT 2004	2.0	-10.0	41	BEYOND	10000.0	WNW	290	6.173333333333334	10.28888888888889
CWGZ	Grise Fiord Airport		Canada	45.0	76.417	-82.9	Tue Apr 06 09:00:00 PDT 2004	-28.0	-34.0	57	BEYOND	10000.0	E	90	1.028888888888889	1.028888888888889
CYCO	Coppermine, N. W. T.		Canada	22.0	67.817	-115.133	Tue Apr 06 09:00:00 PDT 2004	-22.0	-25.0	77	BEYOND	10000.0	ENE	60	2.5722222222222224	2.5722222222222224
CYCG	Castlegar Airport		Canada	495.0	49.3	-117.633	Tue Apr 06 09:00:00 PDT 2004	6.0	3.0	81	BEYOND	10000.0	N	0	0.0	0.0
CYMJ	Moose Jaw, Sask.		Canada	577.0	50.333	-105.55	Tue Apr 06 09:00:00 PDT 2004	14.0	-2.0	33	BEYOND	10000.0	ESE	120	3.6011111111111114	3.6011111111111114
CYPC	Paulatuk Airport		Canada	6.0	69.35	-124.033	Tue Apr 06 09:00:00 PDT 2004	-20.0	-22.0	84	BEYOND	10000.0	SE	140	1.5433333333333334	1.5433333333333334
CYAM	Sault Ste Marie, Ont.		Canada	187.0	46.483	-84.5	Tue Apr 06 09:00:00 PDT 2004	0.0	-2.0	86	BEYOND	10000.0	E	100	3.086666666666667	3.086666666666667
CYPQ	Peterborough Airport		Canada	191.0	44.233	-78.367	Tue Apr 06 09:00:00 PDT 2004	4.0	-16.0	22	BEYOND	10000.0	NW	320	3.6011111111111114	3.6011111111111114
CYNA	Natashquan, Que.		Canada	7.0	50.183	-61.817	Tue Apr 06 09:00:00 PDT 2004	4.0	2.0	87	BEYOND	10000.0	NE	40	3.6011111111111114	3.6011111111111114
CYYD	Smithers, B. C.		Canada	523.0	54.817	-127.183	Tue Apr 06 09:00:00 PDT 2004	-1.0	-5.0	74	BEYOND	10000.0	SSE	150	1.5433333333333334	1.5433333333333334
CYBW	Calgary / Springbank		Canada	1200.0	51.1	-114.367	Tue Apr 06 09:00:00 PDT 2004	6.0	-6.0	42	BEYOND	10000.0	N	0	12.346666666666668	16.976666666666667
CYXH	Medicine Hat, Alta.		Canada	717.0	50.017	-110.717	Tue Apr 06 09:00:00 PDT 2004	11.0	-1.0	43	BEYOND	10000.0	SW	220	5.144444444444445	5.144444444444445
CYVM	Broughton Island Airport		Canada	6.0	67.55	-64.033	Tue Apr 06 09:00:00 PDT 2004	-21.0	-27.0	59	BEYOND	10000.0	SSW	200	1.028888888888889	1.028888888888889
CYGQ	Geraldton, Ont.		Canada	349.0	49.783	-86.933	Tue Apr 06 09:00:00 PDT 2004	3.0	-1.0	75	BEYOND	10000.0	W	270	1.5433333333333334	1.5433333333333334
CYWJ	Fort Franklin Airport		Canada	176.0	65.2	-123.433	Tue Apr 06 09:00:00 PDT 2004	-10.0	-14.0	73	BEYOND	10000.0	ESE	110	4.115555555555556	7.716666666666667
CYNC	Aeroport de Wemindji, Que.		Canada	15.0	53.011	-78.83	Tue Apr 06 09:00:00 PDT 2004	-5.0	-12.0	58	BEYOND	10000.0	E	80	2.5722222222222224	2.5722222222222224
CYKZ	Toronto Buttonville		Canada	198.0	43.867	-79.367	Tue Apr 06 09:00:00 PDT 2004	6.0	-9.0	33	BEYOND	10000.0	W	260	3.6011111111111114	3.6011111111111114
CYQV	Yorkton, Sask.		Canada	498.0	51.267	-102.467	Tue Apr 06 09:00:00 PDT 2004	8.0	-1.0	53	BEYOND	10000.0	W	260	1.5433333333333334	1.5433333333333334
CYIO	Pond Inlet, N. W. T.		Canada	59.0	72.7	-77.967	Tue Apr 06 09:00:00 PDT 2004	-25.0	-29.0	70	BEYOND	10000.0	SW	230	1.5433333333333334	1.5433333333333334
CYXL	Sioux Lookout, Ont.		Canada	389.0	50.117	-91.9	Tue Apr 06 09:00:00 PDT 2004	9.0	-2.0	46	BEYOND	10000.0	WNW	290	3.6011111111111114	3.6011111111111114
CWSA	Sable Island, N. S.		Canada	4.0	43.933	-60.017	Tue Apr 06 09:00:00 PDT 2004	3.0	-4.0	60	BEYOND	10000.0	SW	230	9.260000000000002	9.260000000000002
CYOC	Old Crow Airport		Canada	251.0	67.567	-139.817	Tue Apr 06 09:00:00 PDT 2004	-21.0	-23.0	84	BEYOND	10000.0	N	0	0.0	0.0
CYOD	Cold Lake, Alta.		Canada	541.0	54.417	-110.283	Tue Apr 06 09:00:00 PDT 2004	5.0	-5.0	48	BEYOND	10000.0	NNE	30	3.086666666666667	3.086666666666667
CYQB	Quebec, Que		Canada	70.0	46.8	-71.383	Tue Apr 06 09:00:00 PDT 2004	0.0	-8.0	55	BEYOND	10000.0	W	270	5.658888888888889	8.231111111111112
CYUY	Rouyn Airport		Canada	301.0	48.2	-78.833	Tue Apr 06 09:00:00 PDT 2004	-2.0	-15.0	36	BEYOND	10000.0	SW	220	2.057777777777778	2.057777777777778
CYIK	Ivujivik Airport Supplementary Aviation Weather Reporting Station		Canada	42.0	62.417	-77.95	Tue Apr 06 09:00:00 PDT 2004	-16.0	-19.0	78	BEYOND	10000.0	WSW	240	2.057777777777778	2.057777777777778
CYLK	Lutsel KE, N. W. T.		Canada	179.0	62.417	-110.667	Tue Apr 06 09:00:00 PDT 2004	-10.0	-13.0	79	BEYOND	10000.0	ENE	70	5.658888888888889	5.658888888888889
CYXQ	Beaver Creek Airport		Canada	649.0	62.417	-140.867	Tue Apr 06 09:00:00 PDT 2004	-1.0	-5.0	74	BEYOND	10000.0	E	100	1.5433333333333334	1.5433333333333334
CYGK	Kingston, Ont.		Canada	93.0	44.217	-76.6	Tue Apr 06 09:00:00 PDT 2004	4.0	-15.0	24	BEYOND	10000.0	WNW	300	2.5722222222222224	7.716666666666667
CYHM	Hamilton Airport		Canada	237.0	43.167	-79.933	Tue Apr 06 09:00:00 PDT 2004	5.0	-10.0	33	BEYOND	10000.0	SW	220	4.115555555555556	4.115555555555556
CYYQ	Churchill, Man.		Canada	28.0	58.733	-94.067	Tue Apr 06 09:00:00 PDT 2004	-9.0	-10.0	92	BEYOND	10000.0	ENE	70	7.716666666666667	7.716666666666667
CYRJ	Roberval, Que.		Canada	179.0	48.517	-72.267	Tue Apr 06 09:00:00 PDT 2004	-4.0	-12.0	54	BEYOND	10000.0	NW	310	7.202222222222223	7.202222222222223
CYEK	Arviat Airport		Canada	10.0	61.1	-94.067	Tue Apr 06 09:00:00 PDT 2004	-13.0	-15.0	85	AT	3218.688	E	80	10.803333333333335	10.803333333333335
CWDL	Dease Lake B. C.		Canada	816.0	58.417	-130.0	Tue Apr 06 09:00:00 PDT 2004	-5.0	-9.0	74	BEYOND	10000.0	NE	50	2.5722222222222224	2.5722222222222224
CYOY	Valcartier Airport		Canada	168.0	46.9	-71.5	Tue Apr 06 09:00:00 PDT 2004	0.0	-9.0	51	BEYOND	10000.0	WNW	300	7.202222222222223	7.202222222222223
CYQF	Red Deer, Alta.		Canada	905.0	52.183	-113.9	Tue Apr 06 09:00:00 PDT 2004	4.0	-3.0	60	BEYOND	10000.0	NNW	330	11.832222222222223	16.462222222222223
CYDQ	Dawson Creek Airport		Canada	655.0	55.75	-120.183	Tue Apr 06 09:00:00 PDT 2004	5.0	-7.0	41	BEYOND	10000.0	W	270	4.115555555555556	4.115555555555556
CYVT	Buffalo Narrows Man		Canada	434.0	55.833	-108.45	Tue Apr 06 09:00:00 PDT 2004	1.0	-5.0	64	BEYOND	10000.0	NW	310	3.6011111111111114	3.6011111111111114
CYWO	Lupin Airport Supplementary Aviation Weather Reporting Station		Canada	494.0	65.767	-111.25	Tue Apr 06 09:00:00 PDT 2004	-16.0	-18.0	85	AT	1207.008	E	100	8.231111111111112	8.231111111111112
CWCA	Cartwright, Nfld.		Canada	14.0	53.7	-57.033	Tue Apr 06 09:00:00 PDT 2004	1.0	1.0	100	AT	8046.72	NNE	30	1.5433333333333334	1.5433333333333334
CYXS	Prince George, B. C.		Canada	691.0	53.883	-122.683	Tue Apr 06 09:00:00 PDT 2004	3.0	-4.0	60	BEYOND	10000.0	SE	130	1.028888888888889	1.028888888888889
CYPY	Fort Chipewyan, Alta.		Canada	232.0	58.767	-111.117	Tue Apr 06 09:00:00 PDT 2004	-5.0	-10.0	68	BEYOND	10000.0	WNW	300	6.687777777777779	11.317777777777778
CYHH	Nemiscau Airport Supplementary Aviation Weather Reporting Station		Canada	244.0	51.7	-76.117	Tue Apr 06 09:00:00 PDT 2004	-7.0	-14.0	58	BEYOND	10000.0	NW	320	1.5433333333333334	1.5433333333333334
CWOB	Brevoort Island		Canada	367.0	63.333	-64.15	Tue Apr 06 09:00:00 PDT 2004	-18.0	NaN	-1	 	0	ENE	70	2.057777777777778	2.057777777777778
CYKO	Akulivik Airport		Canada	20.0	60.817	-78.15	Tue Apr 06 09:00:00 PDT 2004	-21.0	-25.0	71	BEYOND	10000.0	ESE	110	6.687777777777779	6.687777777777779
CZEM	Eastmain River Airport		Canada	7.0	52.233	-78.517	Tue Apr 06 09:00:00 PDT 2004	-9.0	-11.0	85	BEYOND	10000.0	WNW	300	2.5722222222222224	2.5722222222222224
CYWG	Winnipeg Int. Airportman.		Canada	239.0	49.9	-97.233	Tue Apr 06 09:00:00 PDT 2004	9.0	3.0	66	BEYOND	10000.0	W	280	4.630000000000001	4.630000000000001
CYVR	Vancouver International Air-Port, B. C.		Canada	3.0	49.183	-123.167	Tue Apr 06 09:00:00 PDT 2004	10.0	7.0	81	BEYOND	10000.0	E	90	3.086666666666667	3.086666666666667
CYLL	Lloydminister, Alta.		Canada	665.0	53.317	-110.067	Tue Apr 06 09:00:00 PDT 2004	4.0	-2.0	65	BEYOND	10000.0	E	90	2.057777777777778	2.057777777777778
CYYG	Charlottetown, P. E. I.		Canada	48.0	46.283	-63.133	Tue Apr 06 09:00:00 PDT 2004	0.0	-1.0	93	AT	8046.72	S	180	5.658888888888889	5.658888888888889
CWLY	Lytton, B. C.		Canada	229.0	50.233	-121.583	Tue Apr 06 09:00:00 PDT 2004	6.0	2.0	75	BEYOND	10000.0	SSE	160	1.5433333333333334	1.5433333333333334
CYZP	Sandspit, B. C.		Canada	6.0	53.25	-131.817	Tue Apr 06 09:00:00 PDT 2004	8.0	6.0	87	BEYOND	10000.0	SE	130	7.202222222222223	7.202222222222223
CYGT	Igloolik Airport		Canada	51.0	69.367	-81.817	Tue Apr 06 09:00:00 PDT 2004	-26.0	-30.0	70	BEYOND	10000.0	NNW	330	1.028888888888889	1.028888888888889
CYRL	Red Lake, Ont.		Canada	375.0	51.067	-93.8	Tue Apr 06 09:00:00 PDT 2004	10.0	-3.0	40	BEYOND	10000.0	W	270	4.630000000000001	4.630000000000001
CYQU	Grande Prairie, Alta.		Canada	666.0	55.183	-118.883	Tue Apr 06 09:00:00 PDT 2004	4.0	-6.0	48	BEYOND	10000.0	NW	310	3.6011111111111114	3.6011111111111114
CYHD	Dryden Airport		Canada	413.0	49.833	-92.75	Tue Apr 06 09:00:00 PDT 2004	9.0	-2.0	46	BEYOND	10000.0	W	280	3.086666666666667	3.086666666666667
CYBL	Campbell River Airport		Canada	106.0	49.95	-125.267	Tue Apr 06 09:00:00 PDT 2004	7.0	3.0	75	BEYOND	10000.0	N	0	0.0	0.0
CYRT	Rankin Inlet, N. W. T.		Canada	31.0	62.817	-92.117	Tue Apr 06 09:00:00 PDT 2004	-17.0	-20.0	78	BEYOND	10000.0	E	100	8.745555555555557	11.832222222222223
CYXU	London, Ont.		Canada	278.0	43.033	-81.15	Tue Apr 06 09:00:00 PDT 2004	3.0	-4.0	60	BEYOND	10000.0	S	190	2.5722222222222224	2.5722222222222224
CYFT	Makkovik Airport		Canada	71.0	55.083	-59.183	Tue Apr 06 09:00:00 PDT 2004	-2.0	-3.0	93	AT	3218.688	N	350	8.745555555555557	14.404444444444445
CWCL	Clinton, B. C.		Canada	1057.0	51.15	-121.5	Tue Apr 06 09:00:00 PDT 2004	6.0	-9.0	33	BEYOND	10000.0	N	10	1.5433333333333334	1.5433333333333334
CYAZ	Tofino Airport		Canada	24.0	49.083	-125.767	Tue Apr 06 09:00:00 PDT 2004	8.0	6.0	87	BEYOND	10000.0	S	190	4.115555555555556	4.115555555555556
CYTJ	Terrace Bay Supplementary Aviation Weather Reporting Station		Canada	287.0	48.817	-87.1	Tue Apr 06 09:00:00 PDT 2004	2.0	1.0	93	AT	9656.064	E	90	1.028888888888889	1.028888888888889
CYZY	Mackenzie, B. C.		Canada	695.0	55.3	-123.133	Tue Apr 06 09:00:00 PDT 2004	-1.0	-5.0	74	BEYOND	10000.0	N	0	0.0	0.0
CYRV	Revelstoke, B. C.		Canada	443.0	50.967	-118.183	Tue Apr 06 09:00:00 PDT 2004	3.0	2.0	93	BEYOND	10000.0	N	0	0.0	0.0
CYDN	Dauphin, Man.		Canada	305.0	51.1	-100.05	Tue Apr 06 09:00:00 PDT 2004	11.0	1.0	50	BEYOND	10000.0	W	270	3.086666666666667	3.086666666666667
CYUS	Shepherd Bay, N. W. T.		Canada	51.0	68.817	-93.433	Tue Apr 06 09:00:00 PDT 2004	-26.0	NaN	-1	BEYOND	10000.0	NNE	20	1.028888888888889	1.028888888888889
CWWU	Ingenika Point		Canada	680.0	56.8	-124.9	Tue Apr 06 09:00:00 PDT 2004	7.0	7.0	100	AT	2414.016	SE	140	8.231111111111112	11.317777777777778
CYTH	Thompson Weather Office, Man		Canada	204.0	55.8	-97.85	Tue Apr 06 09:00:00 PDT 2004	4.0	-5.0	52	BEYOND	10000.0	W	280	6.173333333333334	6.173333333333334
CYUL	Montreal / Dorval International, Que		Canada	31.0	45.467	-73.75	Tue Apr 06 09:00:00 PDT 2004	1.0	-9.0	47	BEYOND	10000.0	W	270	10.28888888888889	12.861111111111112
CYSC	Sherbrooke, Que.		Canada	170.0	45.4	-71.883	Tue Apr 06 09:00:00 PDT 2004	-5.0	-12.0	58	BEYOND	10000.0	WNW	290	5.658888888888889	9.260000000000002
CYED	Edmonton Namao Alta.		Canada	688.0	53.667	-113.467	Tue Apr 06 09:00:00 PDT 2004	3.0	0.0	81	BEYOND	10000.0	NW	320	7.202222222222223	7.202222222222223
CYYN	Swift Current, Sask.		Canada	818.0	50.283	-107.683	Tue Apr 06 09:00:00 PDT 2004	14.0	-2.0	33	BEYOND	10000.0	SE	130	5.658888888888889	5.658888888888889
CYQR	Regina, Sask.		Canada	577.0	50.433	-104.667	Tue Apr 06 09:00:00 PDT 2004	13.0	0.0	40	BEYOND	10000.0	SE	140	3.086666666666667	3.086666666666667
CYVV	Wiarton, Ont.		Canada	222.0	44.75	-81.1	Tue Apr 06 09:00:00 PDT 2004	1.0	-7.0	55	BEYOND	10000.0	SSE	150	3.086666666666667	3.086666666666667
CYBR	Brandon, Man.		Canada	409.0	49.917	-99.95	Tue Apr 06 09:00:00 PDT 2004	10.0	0.0	50	BEYOND	10000.0	WSW	240	2.5722222222222224	2.5722222222222224
CYMX	Montreal / Mirabel		Canada	82.0	45.683	-74.033	Tue Apr 06 09:00:00 PDT 2004	3.0	-9.0	41	BEYOND	10000.0	W	270	5.144444444444445	5.144444444444445
CYXZ	Wawa, Ont.		Canada	287.0	47.967	-84.783	Tue Apr 06 09:00:00 PDT 2004	1.0	-4.0	69	BEYOND	10000.0	SSW	200	1.028888888888889	1.028888888888889
CYKF	Waterloo Well		Canada	317.0	43.467	-80.383	Tue Apr 06 09:00:00 PDT 2004	4.0	-10.0	35	BEYOND	10000.0	SW	220	3.086666666666667	3.086666666666667
CYYC	Calgary International, Alta.		Canada	1077.0	51.117	-114.017	Tue Apr 06 09:00:00 PDT 2004	6.0	-6.0	42	BEYOND	10000.0	NNW	340	12.861111111111112	16.462222222222223
CYAY	Saint Anthony Airport		Canada	28.0	51.4	-56.083	Tue Apr 06 09:00:00 PDT 2004	2.0	1.0	93	BEYOND	10000.0	SE	130	9.260000000000002	9.260000000000002
CYLC	Kimmirut A Nwt		Canada	53.0	62.85	-69.883	Tue Apr 06 09:00:00 PDT 2004	-21.0	-24.0	77	BEYOND	10000.0	N	0	0.0	0.0
CZUM	Churchill Falls, Nfld.		Canada	440.0	53.55	-64.1	Tue Apr 06 09:00:00 PDT 2004	-4.0	-9.0	68	AT	3419.856	NNE	20	5.144444444444445	9.774444444444445
CYTZ	Toronto Island Airport Automated Reporting Station		Canada	77.0	43.633	-79.4	Tue Apr 06 09:00:00 PDT 2004	2.0	-5.0	60	BEYOND	10000.0	SSW	200	4.115555555555556	4.115555555555556
CYQW	North Battleford, Sask.		Canada	548.0	52.767	-108.25	Tue Apr 06 09:00:00 PDT 2004	6.0	1.0	70	BEYOND	10000.0	NNE	30	1.028888888888889	1.028888888888889
CYVO	Val D'Or, Que.		Canada	337.0	48.067	-77.783	Tue Apr 06 09:00:00 PDT 2004	-4.0	-18.0	33	BEYOND	10000.0	N	0	0.0	0.0
CZST	Stewart Airport		Canada	7.0	55.933	-129.983	Tue Apr 06 09:00:00 PDT 2004	2.0	-2.0	75	BEYOND	10000.0	NNW	330	1.5433333333333334	1.5433333333333334
CYBD	Bella Coola Airport		Canada	35.0	52.383	-126.583	Tue Apr 06 09:00:00 PDT 2004	5.0	2.0	81	BEYOND	10000.0	ENE	60	2.057777777777778	2.057777777777778
CYTL	Big Trout Lake		Canada	224.0	53.833	-89.867	Tue Apr 06 09:22:00 PDT 2004	1.0	1.0	100	BEYOND	10000.0	NW	320	2.5722222222222224	2.5722222222222224
CYCP	Blue River, B. C.		Canada	679.0	52.133	-119.3	Tue Apr 06 09:00:00 PDT 2004	2.0	-2.0	75	BEYOND	10000.0	SSE	160	1.028888888888889	1.028888888888889
CZFA	Faro Airport		Canada	717.0	62.2	-133.367	Tue Apr 06 09:00:00 PDT 2004	-5.0	-9.0	74	BEYOND	10000.0	E	100	2.057777777777778	2.057777777777778
CZFM	Fort Mcpherson Airport		Canada	43.0	67.4	-134.85	Tue Apr 06 09:00:00 PDT 2004	-15.0	-18.0	78	BEYOND	10000.0	S	170	3.086666666666667	3.086666666666667
CYOA	Ekati, N. W. T.		Canada	469.0	64.7	-110.617	Tue Apr 06 09:00:00 PDT 2004	-16.0	-18.0	85	AT	1609.344	ENE	70	7.716666666666667	7.716666666666667
CYUX	Hall Beach, N. W. T.		Canada	8.0	68.783	-81.25	Tue Apr 06 09:00:00 PDT 2004	-26.0	-31.0	63	BEYOND	10000.0	NW	310	5.658888888888889	5.658888888888889
CYQM	Moncton, N. B.		Canada	71.0	46.117	-64.683	Tue Apr 06 09:00:00 PDT 2004	0.0	-1.0	93	AT	2414.016	WSW	240	5.144444444444445	5.144444444444445
CYLU	Kangiksualujjuaq A		Canada	60.0	58.717	-65.983	Tue Apr 06 09:00:00 PDT 2004	-11.0	-13.0	85	AT	6437.376	N	0	5.144444444444445	7.716666666666667
CYYJ	Victoria Int. Airportb. C.		Canada	20.0	48.65	-123.433	Tue Apr 06 09:00:00 PDT 2004	8.0	5.0	81	BEYOND	10000.0	NNW	330	1.028888888888889	1.028888888888889
CYYZ	Toronto Pearson Int'L. Ont.		Canada	173.0	43.667	-79.633	Tue Apr 06 09:00:00 PDT 2004	5.0	-9.0	35	BEYOND	10000.0	WSW	250	2.057777777777778	2.057777777777778
CYGX	Gillam, Man.		Canada	145.0	56.35	-94.7	Tue Apr 06 09:00:00 PDT 2004	-3.0	-3.0	100	BEYOND	10000.0	NNE	20	1.5433333333333334	1.5433333333333334
CYSF	Stony Rapids Airport		Canada	250.0	59.25	-105.833	Tue Apr 06 09:00:00 PDT 2004	-5.0	-11.0	63	BEYOND	10000.0	NW	310	5.144444444444445	5.144444444444445
CYTS	Timmins, Ont.		Canada	295.0	48.567	-81.367	Tue Apr 06 09:00:00 PDT 2004	0.0	-14.0	34	BEYOND	10000.0	SE	130	2.057777777777778	2.057777777777778
CYSY	Sachs Harbour Airport		Canada	86.0	72.0	-125.283	Tue Apr 06 09:00:00 PDT 2004	-18.0	-21.0	78	BEYOND	10000.0	SSE	150	5.144444444444445	7.716666666666667
CYZW	Teslin, Y. T.		Canada	711.0	60.167	-132.733	Tue Apr 06 09:00:00 PDT 2004	-4.0	-7.0	80	BEYOND	10000.0	N	0	0.0	0.0
CYSM	Fort Smith, N. W. T.		Canada	203.0	60.017	-111.95	Tue Apr 06 09:00:00 PDT 2004	-10.0	-14.0	73	BEYOND	10000.0	NW	310	5.144444444444445	5.144444444444445
CWYK	Cape Kiglapait, Nfld.		Canada	834.0	57.133	-61.483	Tue Apr 06 09:00:00 PDT 2004	-14.0	NaN	-1	 	0	W	270	24.693333333333335	24.693333333333335
CYHI	Holman Island Airport		Canada	36.0	70.767	-117.8	Tue Apr 06 09:00:00 PDT 2004	-18.0	-22.0	71	BEYOND	10000.0	NE	50	5.144444444444445	5.144444444444445
CYGR	Iles De La Madeleineque.		Canada	10.0	47.417	-61.783	Tue Apr 06 09:00:00 PDT 2004	2.0	-1.0	80	BEYOND	10000.0	SSW	210	3.6011111111111114	3.6011111111111114
CYKL	Schefferville, Que.		Canada	521.0	54.8	-66.8	Tue Apr 06 09:00:00 PDT 2004	-10.0	-12.0	85	AT	8046.72	N	350	7.202222222222223	7.202222222222223
CYWY	Wrigley Airport		Canada	150.0	63.217	-123.433	Tue Apr 06 09:00:00 PDT 2004	-9.0	-12.0	79	BEYOND	10000.0	SE	140	2.5722222222222224	2.5722222222222224
CYUT	Repulse Bay Airport		Canada	24.0	66.533	-86.25	Tue Apr 06 09:00:00 PDT 2004	-25.0	-28.0	76	BEYOND	10000.0	N	350	2.5722222222222224	2.5722222222222224
CYPW	Powell River Airport		Canada	130.0	49.833	-124.5	Tue Apr 06 09:00:00 PDT 2004	8.0	6.0	87	BEYOND	10000.0	NNW	330	2.057777777777778	2.057777777777778
CYQL	Lethbridge, Alta.		Canada	929.0	49.633	-112.8	Tue Apr 06 09:00:00 PDT 2004	13.0	-1.0	38	BEYOND	10000.0	WSW	240	5.144444444444445	5.144444444444445
CYBU	Nipawin, Sask.		Canada	372.0	53.333	-104.0	Tue Apr 06 09:00:00 PDT 2004	8.0	-2.0	49	BEYOND	10000.0	N	0	0.0	0.0
CWAE	Whistler		Canada	658.0	50.133	-122.95	Tue Apr 06 09:00:00 PDT 2004	4.0	2.0	87	BEYOND	10000.0	N	0	0.0	0.0
CYBN	Borden, Ont.		Canada	223.0	44.25	-79.917	Tue Apr 06 09:00:00 PDT 2004	4.0	-9.0	38	BEYOND	10000.0	W	270	3.086666666666667	3.086666666666667
CZPC	Pincher Creek Airport		Canada	1190.0	49.517	-113.983	Tue Apr 06 09:00:00 PDT 2004	11.0	-2.0	40	BEYOND	10000.0	NW	320	4.115555555555556	4.115555555555556
CYVQ	Norman Wells, N. W. T.		Canada	67.0	65.283	-126.8	Tue Apr 06 09:00:00 PDT 2004	-9.0	-16.0	57	BEYOND	10000.0	SE	130	2.057777777777778	2.057777777777778
CZCP	Cape Parry, N. W. T.		Canada	87.0	70.1	-124.717	Tue Apr 06 09:00:00 PDT 2004	-21.0	NaN	-1	BEYOND	10000.0	ESE	110	8.745555555555557	8.745555555555557
CYHU	Saint Hubert Airport		Canada	27.0	45.517	-73.417	Tue Apr 06 09:00:00 PDT 2004	0.0	-8.0	55	BEYOND	10000.0	W	270	6.173333333333334	6.173333333333334
CYXX	Abbotsford, B. C.		Canada	54.0	49.033	-122.367	Tue Apr 06 09:00:00 PDT 2004	8.0	5.0	81	BEYOND	10000.0	N	0	0.0	0.0
CYBG	Bagotville, Que.		Canada	159.0	48.333	-71.0	Tue Apr 06 09:00:00 PDT 2004	-6.0	-10.0	73	BEYOND	10000.0	W	270	7.716666666666667	10.803333333333335
CYKA	Kamloops, B. C.		Canada	345.0	50.7	-120.45	Tue Apr 06 09:00:00 PDT 2004	10.0	-4.0	37	BEYOND	10000.0	W	280	5.144444444444445	5.144444444444445
CYYY	Mont Joli, Que.		Canada	48.0	48.6	-68.217	Tue Apr 06 09:00:00 PDT 2004	0.0	0.0	100	BEYOND	10000.0	N	350	5.144444444444445	5.144444444444445
CYPL	Pickle Lake Man		Canada	386.0	51.45	-90.2	Tue Apr 06 09:00:00 PDT 2004	6.0	1.0	70	BEYOND	10000.0	WNW	290	3.6011111111111114	3.6011111111111114
CYDF	Deer Lake, Nfld.		Canada	17.0	49.217	-57.4	Tue Apr 06 09:00:00 PDT 2004	4.0	4.0	100	AT	2414.016	ENE	60	1.5433333333333334	1.5433333333333334
CYCQ	Chetwynd Airport		Canada	609.0	55.7	-121.633	Tue Apr 06 09:00:00 PDT 2004	3.0	-5.0	56	BEYOND	10000.0	WSW	240	1.028888888888889	1.028888888888889
CYCD	Nanaimo Airport		Canada	28.0	49.05	-123.867	Tue Apr 06 09:00:00 PDT 2004	8.0	4.0	76	BEYOND	10000.0	WNW	300	1.5433333333333334	1.5433333333333334
CYBC	Baie Comeau, Que.		Canada	21.0	49.133	-68.2	Tue Apr 06 09:00:00 PDT 2004	3.0	-3.0	65	BEYOND	10000.0	N	350	6.173333333333334	9.260000000000002
CYQQ	Comox, B. C.		Canada	24.0	49.717	-124.9	Tue Apr 06 09:00:00 PDT 2004	8.0	4.0	76	BEYOND	10000.0	N	0	0.0	0.0
CYWK	Wabush Lake, Nfld.		Canada	551.0	52.933	-66.867	Tue Apr 06 09:00:00 PDT 2004	-7.0	-9.0	86	AT	9656.064	NNE	20	7.716666666666667	10.28888888888889
CYVP	Kuujjuaq, Que.		Canada	37.0	58.1	-68.417	Tue Apr 06 09:00:00 PDT 2004	-13.0	-19.0	61	BEYOND	10000.0	N	350	4.630000000000001	4.630000000000001
CYTR	Trenton, Ont.		Canada	85.0	44.117	-77.533	Tue Apr 06 09:00:00 PDT 2004	5.0	-14.0	24	BEYOND	10000.0	W	280	2.5722222222222224	2.5722222222222224
CYJF	Fort Liard Airport		Canada	215.0	60.233	-123.483	Tue Apr 06 09:00:00 PDT 2004	-1.0	-5.0	74	BEYOND	10000.0	SW	220	3.086666666666667	3.086666666666667
CYSK	Sanikiluaq Airport		Canada	32.0	56.533	-79.25	Tue Apr 06 09:00:00 PDT 2004	-12.0	-13.0	92	BEYOND	10000.0	E	100	6.687777777777779	6.687777777777779
CYSL	Saint Leonard Airport		Canada	241.0	47.15	-67.833	Tue Apr 06 09:00:00 PDT 2004	0.0	-2.0	86	AT	3218.688	WNW	300	6.173333333333334	8.745555555555557
CYLW	Kelowna Airport		Canada	430.0	49.967	-119.383	Tue Apr 06 09:00:00 PDT 2004	8.0	-2.0	49	BEYOND	10000.0	N	0	0.0	0.0
CYEV	Inuvik, N. W. T.		Canada	59.0	68.3	-133.483	Tue Apr 06 09:00:00 PDT 2004	-10.0	-15.0	67	BEYOND	10000.0	E	100	3.6011111111111114	3.6011111111111114
CYAS	Kangirsuk Supplementary Aviation Weather Reporting Station		Canada	117.0	60.017	-70.0	Tue Apr 06 09:00:00 PDT 2004	-19.0	-21.0	84	BEYOND	10000.0	NW	320	2.5722222222222224	2.5722222222222224
CYOJ	High Level, Alta		Canada	338.0	58.617	-117.167	Tue Apr 06 09:00:00 PDT 2004	4.0	-5.0	52	BEYOND	10000.0	N	0	3.086666666666667	3.086666666666667
CYZE	Gore Bay, Ont.		Canada	193.0	45.883	-82.567	Tue Apr 06 09:00:00 PDT 2004	2.0	-6.0	55	BEYOND	10000.0	SSE	160	7.716666666666667	7.716666666666667
CYXC	Cranbrook, B. C.		Canada	939.0	49.617	-115.783	Tue Apr 06 09:00:00 PDT 2004	6.0	-2.0	56	BEYOND	10000.0	N	0	0.0	0.0
CYET	Edson, Alta.		Canada	921.0	53.583	-116.467	Tue Apr 06 09:00:00 PDT 2004	6.0	-6.0	42	BEYOND	10000.0	WNW	300	5.144444444444445	8.231111111111112
CYCB	Cambridge Bay, N. W. T.		Canada	23.0	69.1	-105.117	Tue Apr 06 09:00:00 PDT 2004	-25.0	-30.0	64	BEYOND	10000.0	ENE	70	4.115555555555556	4.115555555555556
CYXR	Earlton, Ont.		Canada	243.0	47.7	-79.85	Tue Apr 06 09:00:00 PDT 2004	-4.0	-16.0	39	BEYOND	10000.0	ESE	120	1.5433333333333334	1.5433333333333334
CZFN	Fort Norman Airport		Canada	98.0	64.917	-125.567	Tue Apr 06 09:00:00 PDT 2004	-11.0	-15.0	73	BEYOND	10000.0	NNE	30	5.144444444444445	5.144444444444445
CYZG	Salliut Airport Supplementary Aviation Weather Reporting Station		Canada	226.0	62.183	-75.667	Tue Apr 06 09:00:00 PDT 2004	-21.0	-24.0	77	BEYOND	10000.0	N	0	0.0	0.0
GVAC	Sal		Cape Verde	54.0	16.733	-22.95	Tue Apr 06 04:00:00 PDT 2004	23.0	17.0	68	BEYOND	10000.0	N	0	9.774444444444445	9.774444444444445
MWCR	Owen Roberts Airportgrand Cayman		Cayman Islands	3.0	19.283	-81.35	Tue Apr 06 09:00:00 PDT 2004	28.0	24.0	78	BEYOND	10000.0	NE	50	6.687777777777779	6.687777777777779
FEFF	Bangui		Central African Republic	365.0	4.4	18.517	Tue Apr 06 02:00:00 PDT 2004	33.0	24.0	58	BEYOND	10000.0	SSE	150	4.115555555555556	4.115555555555556
FTTJ	Ndjamena		Chad	295.0	12.133	15.033	Tue Apr 06 09:00:00 PDT 2004	38.0	18.0	30	AT	1500.0	SE	130	6.173333333333334	11.317777777777778
FTTA	Sarh		Chad	365.0	9.15	18.383	Tue Apr 06 06:00:00 PDT 2004	40.0	17.0	25	BEYOND	10000.0	S	180	4.115555555555556	4.115555555555556
SCAR	Arica		Chile	58.0	-18.333	-70.333	Tue Apr 06 09:00:00 PDT 2004	22.0	14.0	60	BEYOND	10000.0	SSW	210	5.144444444444445	5.144444444444445
SCHA	Copiapo		Chile	291.0	-27.3	-70.417	Tue Apr 06 09:00:00 PDT 2004	23.0	8.0	38	BEYOND	10000.0	SW	230	4.115555555555556	4.115555555555556
SCCI	Punta Arenas		Chile	37.0	-53.0	-70.85	Tue Apr 06 09:00:00 PDT 2004	12.0	4.0	58	BEYOND	10000.0	NW	320	5.144444444444445	5.144444444444445
SCTC	Temuco		Chile	114.0	-38.75	-72.633	Tue Apr 06 09:00:00 PDT 2004	16.0	11.0	72	BEYOND	10000.0	NNW	330	4.115555555555556	4.115555555555556
SCDA	Iquique / Diego Arac		Chile	52.0	-20.533	-70.183	Tue Apr 06 09:00:00 PDT 2004	21.0	13.0	60	BEYOND	10000.0	S	190	8.231111111111112	8.231111111111112
SCSE	La Serena		Chile	142.0	-29.9	-71.2	Tue Apr 06 09:00:00 PDT 2004	20.0	13.0	64	BEYOND	10000.0	WNW	290	5.144444444444445	5.144444444444445
SCTE	Puerto Montt		Chile	85.0	-41.417	-73.083	Tue Apr 06 09:00:00 PDT 2004	11.0	10.0	93	BEYOND	10000.0	NNW	330	4.630000000000001	4.630000000000001
SCIE	Concepcion		Chile	12.0	-36.767	-73.05	Tue Apr 06 09:00:00 PDT 2004	17.0	14.0	82	AT	8000.0	WSW	250	4.630000000000001	4.630000000000001
SCBA	Balmaceda		Chile	520.0	-45.917	-71.683	Tue Apr 06 09:00:00 PDT 2004	5.0	4.0	93	BEYOND	10000.0	WNW	300	5.144444444444445	5.144444444444445
SCEL	Pudahuel		Chile	475.0	-33.383	-70.783	Tue Apr 06 09:00:00 PDT 2004	19.0	10.0	55	AT	6000.0	N	359	1.5433333333333334	1.5433333333333334
SCFA	Antofagasta		Chile	135.0	-23.433	-70.433	Tue Apr 06 09:00:00 PDT 2004	20.0	14.0	68	BEYOND	10000.0	S	180	4.630000000000001	4.630000000000001
ZSPD	Shanghai / Pudong		China	4.0	31.117	121.767	Tue Apr 06 09:00:00 PDT 2004	12.0	10.0	87	BEYOND	10000.0	N	0	7.0	7.0
ZYTX	Shenyang / Taokian		China	35.0	41.8	123.4	Tue Apr 06 09:00:00 PDT 2004	1.0	-6.0	59	BEYOND	10000.0	W	280	2.0	2.0
ZSNJ	Nanjing		China	12.0	32.0	118.8	Tue Apr 06 09:00:00 PDT 2004	13.0	9.0	76	AT	8000.0	NE	40	5.0	5.0
ZHHH	Wuhan		China	23.0	30.617	114.133	Tue Apr 06 09:00:00 PDT 2004	16.0	11.0	72	AT	3000.0	NNE	30	9.0	14.0
ZSQD	Qingdao		China	77.0	36.067	120.333	Tue Apr 06 09:00:00 PDT 2004	5.0	4.0	93	 	0	N	10	4.0	4.0
ZBYN	Taiyuan		China	779.0	37.783	112.55	Tue Apr 06 09:00:00 PDT 2004	0.0	-3.0	80	BEYOND	10000.0	SE	140	2.0	2.0
ZUUU	Chengdu		China	508.0	30.667	104.017	Tue Apr 06 09:00:00 PDT 2004	14.0	11.0	82	BEYOND	10000.0	WSW	250	2.0	2.0
ZGHA	Changsha		China	NaN	28.233	112.867	Tue Apr 06 09:00:00 PDT 2004	21.0	20.0	94	AT	6000.0	ENE	60	1.0	1.0
ZWSH	Kashi		China	1291.0	39.467	75.983	Tue Apr 06 07:00:00 PDT 2004	24.0	-2.0	17	AT	3500.0	ENE	60	5.0	5.0
ZBTJ	Tianjin / Zhangguizhu		China	3.0	39.183	117.35	Tue Apr 06 09:00:00 PDT 2004	7.0	4.0	81	BEYOND	10000.0	WSW	240	4.0	4.0
ZGNN	Nanning		China	73.0	22.817	108.35	Tue Apr 06 09:00:00 PDT 2004	22.0	21.0	94	BEYOND	10000.0	S	180	1.0	1.0
ZWWW	Urum-Qi / Diwopu		China	654.0	43.9	87.467	Tue Apr 06 09:00:00 PDT 2004	19.0	-7.0	16	BEYOND	10000.0	SE	140	9.0	14.0
ZYHB	Harbin		China	NaN	46.02	126.58	Tue Apr 06 09:00:00 PDT 2004	-3.0	-6.0	80	BEYOND	10000.0	WNW	290	4.0	4.0
ZSSS	Shanghai / Hongqiao		China	7.0	31.167	121.433	Tue Apr 06 09:00:00 PDT 2004	13.0	9.0	76	AT	4000.0	N	10	7.0	7.0
ZLLL	Lanzhou / Zhongchuan		China	NaN	36.02	103.75	Tue Apr 06 09:00:00 PDT 2004	0.0	-4.0	74	BEYOND	10000.0	N	359	1.0	1.0
ZBHH	Hohhot		China	1065.0	40.817	111.683	Tue Apr 06 09:00:00 PDT 2004	0.0	-18.0	25	BEYOND	10000.0	WNW	290	2.0	2.0
ZGSZ	Shenzhen		China	18.0	22.55	114.1	Tue Apr 06 09:00:00 PDT 2004	22.0	19.0	83	AT	3500.0	ESE	110	4.0	4.0
ZYCC	Changchun		China	238.0	43.9	125.217	Tue Apr 06 08:00:00 PDT 2004	3.0	-14.0	27	BEYOND	10000.0	NNW	330	5.0	5.0
ZUCK	Chongqing		China	351.0	29.517	106.483	Tue Apr 06 09:00:00 PDT 2004	16.0	14.0	88	AT	4000.0	S	180	2.0	2.0
ZGKL	Guilin		China	166.0	25.333	110.3	Tue Apr 06 09:00:00 PDT 2004	20.0	20.0	100	AT	1000.0	NNW	330	2.0	2.0
ZSCN	Nanchang		China	50.0	28.6	115.917	Tue Apr 06 03:00:00 PDT 2004	25.0	16.0	57	AT	9000.0	SE	140	3.0	3.0
ZSHC	Hangzhou		China	43.0	30.233	120.167	Tue Apr 06 09:00:00 PDT 2004	21.0	13.0	60	BEYOND	10000.0	WNW	290	5.0	5.0
ZYTL	Dalian		China	97.0	38.9	121.633	Tue Apr 06 09:00:00 PDT 2004	4.0	0.0	75	BEYOND	10000.0	W	280	3.0	3.0
ZGOW	Shantou		China	3.0	23.4	116.683	Tue Apr 06 09:00:00 PDT 2004	20.0	18.0	88	BEYOND	10000.0	NE	40	1.0	1.0
ZSAM	Xiamen		China	139.0	24.483	118.083	Tue Apr 06 09:00:00 PDT 2004	19.0	15.0	77	AT	6000.0	N	0	0.0	0.0
ZBAA	Beijing		China	55.0	39.933	116.283	Tue Apr 06 09:00:00 PDT 2004	4.0	-2.0	65	BEYOND	10000.0	N	0	0.0	0.0
ZPPP	Kunming		China	1892.0	25.017	102.683	Tue Apr 06 09:00:00 PDT 2004	17.0	6.0	48	BEYOND	10000.0	WNW	290	2.0	2.0
ZSOF	Hefei		China	36.0	31.867	117.233	Tue Apr 06 09:00:00 PDT 2004	13.0	7.0	67	AT	6000.0	NNE	20	6.0	6.0
ZGGG	Guangzhou		China	8.0	23.167	113.333	Tue Apr 06 09:00:00 PDT 2004	21.0	20.0	94	AT	1700.0	SSE	160	1.0	1.0
YPXM	Christmas Island Aerodrome		Christmas Island	279.0	-10.433	105.683	Tue Apr 06 09:00:00 PDT 2004	26.0	23.0	83	 	0	ESE	120	6.173333333333334	6.173333333333334
YPCC	Cocos Island Airport		Christmas Island	3.0	-12.183	96.817	Tue Apr 06 08:00:00 PDT 2004	27.0	24.0	83	 	0	ESE	110	3.6011111111111114	3.6011111111111114
SKCG	Cartagena / Rafael Nunez		Colombia	1.0	10.45	-75.517	Tue Apr 06 09:00:00 PDT 2004	30.0	25.0	74	AT	9000.0	NNW	330	3.086666666666667	3.086666666666667
SKSP	San Andres Isla / Sesquicentenario		Colombia	1.0	12.583	-81.717	Tue Apr 06 09:00:00 PDT 2004	28.0	25.0	83	BEYOND	10000.0	ENE	70	3.6011111111111114	3.6011111111111114
SKBO	Bogota / Eldorado		Colombia	2547.0	4.717	-74.15	Tue Apr 06 09:00:00 PDT 2004	19.0	9.0	52	BEYOND	10000.0	ENE	60	5.144444444444445	5.144444444444445
SKBQ	Barranquilla / Ernestocortissoz		Colombia	14.0	10.883	-74.783	Tue Apr 06 09:00:00 PDT 2004	31.0	24.0	66	BEYOND	10000.0	NE	50	6.687777777777779	6.687777777777779
SKCL	Cali / Alfonso Bonillaaragon		Colombia	961.0	3.55	-76.383	Tue Apr 06 09:00:00 PDT 2004	29.0	20.0	58	AT	8000.0	ESE	110	2.057777777777778	2.057777777777778
SKLT	Leticia / Vasquez Cobo		Colombia	84.0	-4.167	-69.95	Tue Apr 06 09:00:00 PDT 2004	30.0	26.0	79	BEYOND	10000.0	W	280	2.5722222222222224	2.5722222222222224
SKRG	Rionegro / J. M. Cordova		Colombia	2140.0	6.133	-75.433	Tue Apr 06 09:00:00 PDT 2004	22.0	13.0	56	BEYOND	10000.0	ESE	110	5.144444444444445	5.144444444444445
FMCZ	Dzaoudzi / Pamanzi Mayotte		Comoros	8.0	-12.8	45.283	Tue Apr 06 08:00:00 PDT 2004	28.0	23.0	74	BEYOND	10000.0	ESE	120	1.5433333333333334	1.5433333333333334
FCBB	Brazzaville / Maya-Maya		Congo	319.0	-4.25	15.25	Tue Apr 06 09:00:00 PDT 2004	32.0	22.0	55	BEYOND	10000.0	S	190	2.057777777777778	2.057777777777778
FCPP	Pointe-Noire		Congo	17.0	-4.817	11.9	Tue Apr 06 09:00:00 PDT 2004	27.0	22.0	74	BEYOND	10000.0	SSW	200	5.144444444444445	5.144444444444445
NCRG	Rarotonga		Cook Islands	7.0	-21.2	-159.817	Tue Apr 06 09:00:00 PDT 2004	26.0	23.0	83	BEYOND	10000.0	ESE	120	1.5433333333333334	1.5433333333333334
NIUE	Alofi / Niue		Cook Islands	20.0	-19.067	-169.917	Mon Apr 05 20:00:00 PDT 2004	30.0	25.0	74	BEYOND	10000.0	SW	220	10.28888888888889	10.28888888888889
MROC	Juan Santamaria		Costa Rica	920.0	10.0	-84.217	Tue Apr 06 09:00:00 PDT 2004	29.0	16.0	45	BEYOND	10000.0	ESE	110	7.202222222222223	7.202222222222223
MRLM	Puerto Limon		Costa Rica	5.0	10.0	-83.05	Tue Apr 06 09:00:00 PDT 2004	29.0	23.0	69	BEYOND	10000.0	E	100	2.5722222222222224	2.5722222222222224
MRPV	Tobias Bolanos International		Costa Rica	994.0	9.95	-84.15	Tue Apr 06 09:00:00 PDT 2004	26.0	17.0	57	BEYOND	10000.0	ENE	70	7.716666666666667	7.716666666666667
MRLB	Liberia		Costa Rica	80.0	10.617	-85.433	Tue Apr 06 09:00:00 PDT 2004	33.0	19.0	43	BEYOND	10000.0	E	90	6.687777777777779	6.687777777777779
MROC	Juan Santamaria		Costa Rica	920.0	10.0	-84.217	Tue Apr 06 09:00:00 PDT 2004	29.0	16.0	45	BEYOND	10000.0	ESE	110	7.202222222222223	7.202222222222223
MRPV	Tobias Bolanos International		Costa Rica	994.0	9.95	-84.15	Tue Apr 06 09:00:00 PDT 2004	26.0	17.0	57	BEYOND	10000.0	ENE	70	7.716666666666667	7.716666666666667
MRLM	Puerto Limon		Costa Rica	5.0	10.0	-83.05	Tue Apr 06 09:00:00 PDT 2004	29.0	23.0	69	BEYOND	10000.0	E	100	2.5722222222222224	2.5722222222222224
DIAP	Abidjan		Cote D'Ivoire	7.0	5.25	-3.933	Tue Apr 06 09:00:00 PDT 2004	31.0	25.0	70	BEYOND	10000.0	S	190	5.658888888888889	5.658888888888889
LDSP	Split / Resnik		Croatia	19.0	43.533	16.3	Tue Apr 06 08:00:00 PDT 2004	17.0	11.0	67	BEYOND	10000.0	ESE	110	6.687777777777779	6.687777777777779
LDZA	Zagreb / Pleso		Croatia	106.0	45.733	16.067	Tue Apr 06 08:00:00 PDT 2004	9.0	9.0	100	BEYOND	10000.0	N	359	1.028888888888889	1.028888888888889
LDDU	Dubrovnik / Cilipi		Croatia	157.0	42.567	18.267	Tue Apr 06 08:00:00 PDT 2004	15.0	10.0	72	BEYOND	10000.0	SE	140	8.231111111111112	8.231111111111112
LDLO	Losinj Island		Croatia	45.0	44.566	14.393	Tue Apr 06 07:00:00 PDT 2004	14.0	11.0	82	BEYOND	10000.0	S	180	4.630000000000001	4.630000000000001
LDPL	Pula Aerodrome		Croatia	63.0	45.9	13.917	Tue Apr 06 08:00:00 PDT 2004	14.0	11.0	82	BEYOND	10000.0	SSE	150	3.6011111111111114	3.6011111111111114
LDRI	Rijeka / Omisalj		Croatia	85.0	45.217	14.583	Tue Apr 06 08:00:00 PDT 2004	14.0	9.0	71	BEYOND	10000.0	SSE	150	3.086666666666667	3.086666666666667
LDZD	Zadar / Zemunik		Croatia	82.0	44.1	15.35	Tue Apr 06 08:00:00 PDT 2004	15.0	12.0	82	BEYOND	10000.0	SSE	160	6.687777777777779	6.687777777777779
MUHA	Aeropuerto Jose Marti, Rancho-Boyeros, Habana		Cuba	59.0	22.983	-82.4	Tue Apr 06 07:53:00 PDT 2004	26.0	16.0	53	AT	8000.0	NNE	30	4.115555555555556	4.115555555555556
MUGM	Guantanamo, Oriente		Cuba	23.0	19.9	-75.133	Tue Apr 06 08:55:00 PDT 2004	27.8	16.7	50	BEYOND	10000.0	SSE	160	4.630000000000001	4.630000000000001
MUCA	Venezuela, Ciego De Avila		Cuba	26.0	21.783	-78.783	Tue Apr 06 07:50:00 PDT 2004	25.0	16.0	57	BEYOND	10000.0	ENE	70	4.115555555555556	4.115555555555556
MUCF	Cienfuegos, Las Villas		Cuba	39.0	22.15	-80.4	Tue Apr 06 07:50:00 PDT 2004	27.0	19.0	61	AT	9000.0	ENE	70	3.086666666666667	3.086666666666667
MUCU	Santiago De Cuba, Oriente		Cuba	69.0	19.967	-75.85	Tue Apr 06 07:50:00 PDT 2004	28.0	14.0	41	AT	8000.0	N	10	3.6011111111111114	3.6011111111111114
MUHG	Holguin Civ / Mil		Cuba	106.0	20.783	-76.317	Tue Apr 06 07:51:00 PDT 2004	28.0	14.0	41	BEYOND	10000.0	N	359	3.086666666666667	3.086666666666667
MUVR	Varadero, Matanzas		Cuba	3.0	23.133	-81.283	Tue Apr 06 07:50:00 PDT 2004	27.0	21.0	69	AT	9000.0	ENE	60	2.057777777777778	2.057777777777778
MUCM	Camaguey Aeropuerto		Cuba	122.0	21.417	-77.85	Tue Apr 06 07:50:00 PDT 2004	27.0	14.0	44	AT	9000.0	E	80	3.6011111111111114	3.6011111111111114
MUCL	Cayo Largo Del Sur		Cuba	2.0	21.617	-81.55	Tue Apr 06 07:53:00 PDT 2004	26.0	21.0	73	AT	9000.0	NE	50	4.630000000000001	4.630000000000001
LCRA	Akrotiri		Cyprus	23.0	34.583	32.983	Tue Apr 06 08:50:00 PDT 2004	17.0	10.0	63	BEYOND	10000.0	W	270	5.144444444444445	5.144444444444445
LCPH	Paphos Airport		Cyprus	11.0	34.717	32.483	Tue Apr 06 09:30:00 PDT 2004	16.0	8.0	59	BEYOND	10000.0	NW	310	5.144444444444445	5.144444444444445
LCLK	Larnaca Airport		Cyprus	2.0	34.883	33.633	Tue Apr 06 09:30:00 PDT 2004	16.0	6.0	51	BEYOND	10000.0	SSW	200	3.6011111111111114	3.6011111111111114
LKPR	Praha / Ruzyne		Czech Republic	365.0	50.1	14.25	Tue Apr 06 09:30:00 PDT 2004	7.0	2.0	70	BEYOND	10000.0	WSW	250	6.687777777777779	6.687777777777779
LKHO	Holesov		Czech Republic	224.0	49.317	17.567	Tue Apr 06 09:00:00 PDT 2004	11.0	5.0	66	BEYOND	10000.0	S	170	5.144444444444445	9.774444444444445
LKMT	Ostrava / Mosnov		Czech Republic	256.0	49.683	18.117	Tue Apr 06 09:30:00 PDT 2004	10.0	4.0	66	BEYOND	10000.0	S	180	7.202222222222223	7.202222222222223
LKTB	Brno / Turany		Czech Republic	241.0	49.15	16.7	Tue Apr 06 09:30:00 PDT 2004	9.0	7.0	87	BEYOND	10000.0	S	180	6.687777777777779	6.687777777777779
LKKV	Karlovy Vary		Czech Republic	603.0	50.2	12.917	Tue Apr 06 09:00:00 PDT 2004	3.0	2.0	93	BEYOND	10000.0	W	260	2.057777777777778	2.057777777777778
EKVD	Vamdrup		Denmark	44.0	55.433	9.333	Tue Apr 06 08:50:00 PDT 2004	6.0	3.0	81	BEYOND	10000.0	ENE	70	2.057777777777778	2.057777777777778
EKVJ	Stauning Lufthavn		Denmark	5.0	56.0	8.35	Tue Apr 06 06:50:00 PDT 2004	6.0	5.0	93	BEYOND	10000.0	NE	40	2.057777777777778	2.057777777777778
EKAH	Tirstrup		Denmark	23.0	56.3	10.617	Tue Apr 06 09:20:00 PDT 2004	4.0	3.0	93	AT	9000.0	E	80	5.144444444444445	5.144444444444445
EKVG	Soervaag / Vagar		Denmark	85.0	62.067	-7.283	Tue Apr 06 08:50:00 PDT 2004	4.0	2.0	87	BEYOND	10000.0	NNW	330	12.861111111111112	12.861111111111112
EKBI	Billund Lufthavn		Denmark	75.0	55.733	9.167	Tue Apr 06 09:20:00 PDT 2004	7.0	2.0	70	BEYOND	10000.0	ESE	110	1.5433333333333334	1.5433333333333334
EKRK	Koebenhavn / Roskilde		Denmark	44.0	55.583	12.133	Tue Apr 06 09:20:00 PDT 2004	3.0	2.0	93	AT	8000.0	ESE	110	3.086666666666667	3.086666666666667
EKMB	Maribo Lufthavn		Denmark	5.0	54.7	11.45	Tue Apr 06 07:50:00 PDT 2004	7.0	3.0	75	BEYOND	10000.0	S	190	2.5722222222222224	2.5722222222222224
EKEB	Esbjerg		Denmark	30.0	55.533	8.567	Tue Apr 06 09:20:00 PDT 2004	6.0	3.0	81	BEYOND	10000.0	N	10	2.057777777777778	2.057777777777778
EKOD	Odense / Beldringe		Denmark	17.0	55.483	10.333	Tue Apr 06 08:50:00 PDT 2004	7.0	4.0	81	BEYOND	10000.0	E	80	3.6011111111111114	3.6011111111111114
EKCH	Koebenhavn / Kastrup		Denmark	5.0	55.617	12.65	Tue Apr 06 09:34:00 PDT 2004	1.0	1.0	100	AT	9000.0	SE	140	3.086666666666667	3.086666666666667
EKYT	Aalborg		Denmark	3.0	57.1	9.85	Tue Apr 06 09:20:00 PDT 2004	8.0	5.0	81	BEYOND	10000.0	ENE	70	4.630000000000001	4.630000000000001
EKKA	Karup		Denmark	52.0	56.3	9.117	Tue Apr 06 09:20:00 PDT 2004	6.0	4.0	87	BEYOND	10000.0	NE	50	5.658888888888889	5.658888888888889
EKSB	Soenderborg Lufthavn		Denmark	7.0	54.967	9.783	Tue Apr 06 08:50:00 PDT 2004	7.0	6.0	93	BEYOND	10000.0	S	170	1.028888888888889	1.028888888888889
EKTS	Thisted Lufthavn		Denmark	7.0	57.067	8.717	Tue Apr 06 06:50:00 PDT 2004	5.0	4.0	93	AT	6000.0	NE	50	6.173333333333334	6.173333333333334
EKRN	Roenne		Denmark	16.0	55.067	14.75	Tue Apr 06 09:20:00 PDT 2004	5.0	5.0	100	BEYOND	10000.0	ESE	110	3.086666666666667	3.086666666666667
EKSP	Skrydstrup		Denmark	43.0	55.233	9.267	Tue Apr 06 09:20:00 PDT 2004	6.0	5.0	93	BEYOND	10000.0	SSW	200	1.028888888888889	1.028888888888889
EKSN	Sindal Flyveplads		Denmark	28.0	57.5	10.217	Tue Apr 06 06:50:00 PDT 2004	4.0	4.0	100	BEYOND	10000.0	E	80	5.658888888888889	5.658888888888889
HDAM	Djibouti \ Ambouli		Djibouti	49.0	11.55	43.167	Tue Apr 06 01:00:00 PDT 2004	30.0	24.0	70	BEYOND	10000.0	E	80	5.144444444444445	5.144444444444445
TDCF	Canefield Airport		Dominica	5.0	15.533	-61.4	Tue Apr 06 08:00:00 PDT 2004	28.0	23.0	74	BEYOND	10000.0	WNW	290	1.028888888888889	1.028888888888889
MDPP	Puerto Plata International		Dominican Republic	15.0	19.75	-70.55	Tue Apr 06 09:00:00 PDT 2004	27.0	22.0	74	BEYOND	10000.0	ENE	70	2.5722222222222224	2.5722222222222224
TDPD	Melville Hall Airport		Dominica	13.0	15.533	-61.3	Tue Apr 06 08:00:00 PDT 2004	25.0	23.0	88	BEYOND	10000.0	E	90	2.057777777777778	2.057777777777778
MDST	Santiago		Dominican Republic	183.0	19.45	-70.7	Tue Apr 06 09:00:00 PDT 2004	29.0	21.0	61	BEYOND	10000.0	ENE	70	1.5433333333333334	1.5433333333333334
MDHE	Herrera		Dominican Republic	58.0	18.467	-69.967	Tue Apr 06 09:00:00 PDT 2004	28.0	22.0	69	BEYOND	10000.0	N	0	5.144444444444445	5.144444444444445
MDPC	Punta Cana		Dominican Republic	12.0	18.567	-68.367	Tue Apr 06 09:00:00 PDT 2004	30.0	24.0	70	BEYOND	10000.0	ENE	70	5.144444444444445	5.144444444444445
MDHE	Herrera		Dominican Republic	58.0	18.467	-69.967	Tue Apr 06 09:00:00 PDT 2004	28.0	22.0	69	BEYOND	10000.0	N	0	5.144444444444445	5.144444444444445
MDPC	Punta Cana		Dominican Republic	12.0	18.567	-68.367	Tue Apr 06 09:00:00 PDT 2004	30.0	24.0	70	BEYOND	10000.0	ENE	70	5.144444444444445	5.144444444444445
MDPP	Puerto Plata International		Dominican Republic	15.0	19.75	-70.55	Tue Apr 06 09:00:00 PDT 2004	27.0	22.0	74	BEYOND	10000.0	ENE	70	2.5722222222222224	2.5722222222222224
MDST	Santiago		Dominican Republic	183.0	19.45	-70.7	Tue Apr 06 09:00:00 PDT 2004	29.0	21.0	61	BEYOND	10000.0	ENE	70	1.5433333333333334	1.5433333333333334
SEQU	Quito / Mariscal Sucre		Ecuador	2811.0	-0.15	-78.483	Tue Apr 06 09:00:00 PDT 2004	17.0	7.0	51	BEYOND	10000.0	S	180	3.086666666666667	3.086666666666667
SELT	Latacunga		Ecuador	2785.0	-0.917	-78.617	Tue Apr 06 09:00:00 PDT 2004	13.0	9.0	76	BEYOND	10000.0	S	180	5.144444444444445	5.144444444444445
SEMT	Manta		Ecuador	13.0	-0.95	-80.683	Tue Apr 06 09:00:00 PDT 2004	29.0	23.0	69	BEYOND	10000.0	NNW	340	4.630000000000001	4.630000000000001
SEGU	Guayaquil / Simon Bolivar		Ecuador	4.0	-2.15	-79.883	Tue Apr 06 09:00:00 PDT 2004	28.0	22.0	69	BEYOND	10000.0	NE	40	2.5722222222222224	2.5722222222222224
HEBA	Alexandria Borg El Arab		Egypt	54.0	31.517	30.167	Tue Apr 06 04:00:00 PDT 2004	19.0	6.0	42	BEYOND	10000.0	N	0	6.687777777777779	6.687777777777779
HEMM	Mersa Matruh		Egypt	25.0	31.333	27.217	Tue Apr 06 07:00:00 PDT 2004	18.0	9.0	55	BEYOND	10000.0	N	350	4.115555555555556	4.115555555555556
HESH	Sharm El Sheikhintl		Egypt	50.0	27.967	34.383	Tue Apr 06 07:00:00 PDT 2004	29.0	-6.0	9	BEYOND	10000.0	W	280	6.173333333333334	6.173333333333334
HEGN	Hurguada		Egypt	16.0	27.15	33.717	Tue Apr 06 07:00:00 PDT 2004	27.0	4.0	22	BEYOND	10000.0	NNW	340	10.28888888888889	10.28888888888889
HEPS	Port Said		Egypt	6.0	31.267	32.3	Tue Apr 06 07:00:00 PDT 2004	18.0	9.0	55	BEYOND	10000.0	NNW	330	7.716666666666667	7.716666666666667
HESN	Asswan		Egypt	200.0	23.967	32.783	Tue Apr 06 07:00:00 PDT 2004	31.0	2.0	15	BEYOND	10000.0	NNE	30	3.086666666666667	3.086666666666667
HELX	Luxor		Egypt	93.0	25.667	32.7	Tue Apr 06 07:00:00 PDT 2004	30.0	7.0	23	BEYOND	10000.0	WNW	300	6.173333333333334	6.173333333333334
HEAX	Alexandria / Nouzha		Egypt	-2.0	31.2	29.95	Tue Apr 06 07:00:00 PDT 2004	19.0	6.0	42	BEYOND	10000.0	NNW	330	4.630000000000001	4.630000000000001
HECA	Cairo Airport		Egypt	64.0	30.133	31.4	Tue Apr 06 08:00:00 PDT 2004	21.0	8.0	43	BEYOND	10000.0	N	0	5.144444444444445	5.144444444444445
MSAC	Acajutla		El Salvador	15.0	13.567	-89.833	Tue Apr 06 06:50:00 PDT 2004	29.0	20.0	58	BEYOND	10000.0	E	80	3.6011111111111114	3.6011111111111114
MSLP	El Salvador Intl. Airport / Comalapa		El Salvador	25.0	13.433	-89.05	Tue Apr 06 08:50:00 PDT 2004	33.0	22.0	52	AT	9000.0	ESE	120	2.057777777777778	2.057777777777778
MSSA	Santa Ana / El Palmar		El Salvador	725.0	13.983	-89.567	Mon Apr 05 13:50:00 PDT 2004	32.0	17.0	40	BEYOND	10000.0	ESE	120	3.6011111111111114	3.6011111111111114
MSSS	San Salvador / Ilopango		El Salvador	616.0	13.7	-89.117	Tue Apr 06 08:50:00 PDT 2004	30.0	21.0	58	BEYOND	10000.0	ESE	120	4.115555555555556	4.115555555555556
MSSM	San Miguel / El Papalon		El Salvador	80.0	13.45	-88.117	Tue Apr 06 06:50:00 PDT 2004	27.0	22.0	74	BEYOND	10000.0	N	0	0.0	0.0
FGSL	Malabo/Fernando Poo		Equatorial Guinea	56.0	3.75	8.767	Tue Apr 06 07:00:00 PDT 2004	28.0	21.0	65	AT	9000.0	N	0	0.0	0.0
EETU	Tartu/Ulenurme		Estonia	59.0	58.3	26.733	Tue Apr 06 07:50:00 PDT 2004	12.0	-4.0	32	BEYOND	10000.0	ENE	70	4.115555555555556	4.115555555555556
NFNA	Nausori		Fiji	5.0	-18.05	178.567	Tue Apr 06 09:00:00 PDT 2004	26.0	24.0	88	BEYOND	10000.0	E	90	5.144444444444445	5.144444444444445
NFFN	Nandi		Fiji	13.0	-17.75	177.45	Tue Apr 06 05:00:00 PDT 2004	26.0	24.0	88	BEYOND	10000.0	SE	140	3.086666666666667	3.086666666666667
EFKI	Kajaani		Finland	143.0	64.283	27.683	Tue Apr 06 09:20:00 PDT 2004	7.0	-5.0	42	BEYOND	10000.0	E	90	2.5722222222222224	2.5722222222222224
EFMA	Mariehamn / Aland Island		Finland	6.0	60.117	19.9	Tue Apr 06 09:20:00 PDT 2004	5.0	2.0	81	BEYOND	10000.0	SW	220	1.5433333333333334	1.5433333333333334
EFVR	Varkaus		Finland	87.0	62.167	27.867	Tue Apr 06 09:20:00 PDT 2004	7.0	-4.0	45	BEYOND	10000.0	E	80	2.057777777777778	2.057777777777778
EFJY	Jyvaskyla		Finland	141.0	62.4	25.683	Tue Apr 06 09:20:00 PDT 2004	8.0	-6.0	36	BEYOND	10000.0	E	80	2.057777777777778	2.057777777777778
EFSA	Savonlinna		Finland	95.0	61.95	28.95	Tue Apr 06 09:20:00 PDT 2004	8.0	-5.0	39	BEYOND	10000.0	NNE	20	1.5433333333333334	1.5433333333333334
EFMI	Mikkeli		Finland	138.0	61.733	27.3	Tue Apr 06 09:20:00 PDT 2004	8.0	-5.0	39	BEYOND	10000.0	E	100	1.5433333333333334	1.5433333333333334
EFKU	Kuopio		Finland	98.0	63.017	27.8	Tue Apr 06 09:20:00 PDT 2004	7.0	-6.0	39	BEYOND	10000.0	ESE	110	2.057777777777778	2.057777777777778
EFPO	Pori		Finland	13.0	61.467	21.8	Tue Apr 06 09:20:00 PDT 2004	7.0	-1.0	57	BEYOND	10000.0	WNW	290	1.5433333333333334	1.5433333333333334
EFSI	Seinajoki-Ilmajok		Finland	91.0	62.694	22.832	Tue Apr 06 09:20:00 PDT 2004	8.0	-5.0	39	BEYOND	10000.0	ESE	110	2.057777777777778	2.057777777777778
EFKK	Kruunupyy		Finland	25.0	63.717	23.15	Tue Apr 06 09:20:00 PDT 2004	10.0	-6.0	32	BEYOND	10000.0	ESE	110	2.057777777777778	2.057777777777778
EFHK	Helsinki-Vantaa		Finland	51.0	60.317	24.967	Tue Apr 06 09:20:00 PDT 2004	7.0	-5.0	42	BEYOND	10000.0	ENE	70	3.6011111111111114	3.6011111111111114
EFVA	Vaasa		Finland	4.0	63.05	21.767	Tue Apr 06 09:20:00 PDT 2004	4.0	-3.0	60	BEYOND	10000.0	N	350	3.6011111111111114	3.6011111111111114
EFIV	Ivalo		Finland	147.0	68.617	27.417	Tue Apr 06 09:20:00 PDT 2004	7.0	-5.0	42	BEYOND	10000.0	S	190	1.5433333333333334	1.5433333333333334
EFKE	Kemi		Finland	15.0	65.783	24.583	Tue Apr 06 09:20:00 PDT 2004	8.0	-5.0	39	BEYOND	10000.0	NW	310	0.5144444444444445	0.5144444444444445
EFOU	Oulu		Finland	12.0	64.933	25.367	Tue Apr 06 09:20:00 PDT 2004	7.0	-3.0	49	BEYOND	10000.0	ESE	110	3.086666666666667	3.086666666666667
EFUT	Utti		Finland	100.0	60.9	26.933	Tue Apr 06 09:20:00 PDT 2004	7.0	-6.0	39	BEYOND	10000.0	ENE	60	3.086666666666667	3.086666666666667
EFTP	Tampere / Pirkkala		Finland	112.0	61.417	23.583	Tue Apr 06 09:20:00 PDT 2004	8.0	-8.0	31	BEYOND	10000.0	ESE	110	1.5433333333333334	1.5433333333333334
EFHF	Helsinki-Malmi		Finland	17.0	60.25	25.05	Tue Apr 06 09:20:00 PDT 2004	7.0	-6.0	39	BEYOND	10000.0	ENE	70	2.057777777777778	2.057777777777778
EFRO	Rovaniemi		Finland	197.0	66.567	25.833	Tue Apr 06 09:20:00 PDT 2004	7.0	-4.0	45	BEYOND	10000.0	ESE	120	1.5433333333333334	1.5433333333333334
EFKT	Kittila		Finland	643.0	67.7	24.85	Tue Apr 06 09:20:00 PDT 2004	7.0	-6.0	39	BEYOND	10000.0	SE	140	1.5433333333333334	1.5433333333333334
EFKS	Kuusamo		Finland	262.0	65.967	29.183	Tue Apr 06 09:20:00 PDT 2004	3.0	-4.0	60	BEYOND	10000.0	SSE	150	1.5433333333333334	1.5433333333333334
EFHA	Halli		Finland	143.0	61.85	24.8	Tue Apr 06 09:20:00 PDT 2004	8.0	-5.0	39	BEYOND	10000.0	E	90	2.5722222222222224	2.5722222222222224
EFET	Enontekio		Finland	308.0	68.364	23.428	Tue Apr 06 09:20:00 PDT 2004	6.0	-12.0	26	BEYOND	10000.0	WSW	240	1.5433333333333334	1.5433333333333334
EFKA	Kauhava		Finland	42.0	63.1	23.033	Tue Apr 06 09:20:00 PDT 2004	9.0	-2.0	46	BEYOND	10000.0	ESE	120	2.5722222222222224	2.5722222222222224
EFTU	Turku		Finland	49.0	60.517	22.267	Tue Apr 06 09:20:00 PDT 2004	8.0	-5.0	39	BEYOND	10000.0	E	90	2.5722222222222224	2.5722222222222224
EFJO	Joensuu		Finland	119.0	62.667	29.633	Tue Apr 06 09:20:00 PDT 2004	7.0	-4.0	45	BEYOND	10000.0	NE	50	2.5722222222222224	2.5722222222222224
EFLP	Lappeenranta		Finland	106.0	61.046	28.149	Tue Apr 06 09:20:00 PDT 2004	8.0	-5.0	39	BEYOND	10000.0	E	80	2.5722222222222224	2.5722222222222224
LFKC	Calvi		France	64.0	42.533	8.8	Tue Apr 06 08:00:00 PDT 2004	14.0	4.0	50	BEYOND	10000.0	SW	220	12.861111111111112	19.034444444444446
LFSO	Nancy / Ochey		France	336.0	48.583	5.967	Tue Apr 06 08:00:00 PDT 2004	5.0	3.0	87	BEYOND	10000.0	W	260	4.115555555555556	4.115555555555556
LFRO	Lannion / Servel		France	89.0	48.75	-3.467	Tue Apr 06 08:00:00 PDT 2004	10.0	6.0	76	BEYOND	10000.0	WNW	290	11.317777777777778	16.462222222222223
LFSB	Bale-Mulhouse		France	270.0	47.6	7.517	Tue Apr 06 09:30:00 PDT 2004	6.0	3.0	81	BEYOND	10000.0	W	280	4.115555555555556	4.115555555555556
LFOP	Rouen		France	157.0	49.383	1.183	Tue Apr 06 07:00:00 PDT 2004	7.0	2.0	70	BEYOND	10000.0	W	280	5.144444444444445	5.144444444444445
LFLV	Vichy		France	249.0	46.167	3.4	Tue Apr 06 08:00:00 PDT 2004	10.0	3.0	61	BEYOND	10000.0	W	270	7.716666666666667	7.716666666666667
LFOT	Tours		France	108.0	47.45	0.717	Tue Apr 06 08:00:00 PDT 2004	10.0	1.0	53	BEYOND	10000.0	W	280	8.231111111111112	8.231111111111112
LFPB	Paris / Le Bourget		France	66.0	48.967	2.45	Tue Apr 06 09:30:00 PDT 2004	7.0	3.0	75	BEYOND	10000.0	WNW	290	4.630000000000001	4.630000000000001
LFLL	Lyon / Satolas		France	248.0	45.733	5.083	Tue Apr 06 09:30:00 PDT 2004	10.0	4.0	66	BEYOND	10000.0	NNW	330	2.5722222222222224	2.5722222222222224
LFRN	Rennes		France	37.0	48.067	-1.733	Tue Apr 06 08:00:00 PDT 2004	10.0	3.0	61	BEYOND	10000.0	NNW	340	3.6011111111111114	3.6011111111111114
LFLD	Bourges		France	161.0	47.067	2.367	Tue Apr 06 08:00:00 PDT 2004	10.0	3.0	61	BEYOND	10000.0	W	280	7.716666666666667	7.716666666666667
LFBZ	Biarritz		France	75.0	43.467	-1.533	Tue Apr 06 08:00:00 PDT 2004	12.0	7.0	71	BEYOND	10000.0	NW	310	6.173333333333334	6.173333333333334
LFLX	Chateauroux		France	160.0	46.85	1.717	Tue Apr 06 08:00:00 PDT 2004	11.0	4.0	62	BEYOND	10000.0	W	270	7.716666666666667	7.716666666666667
LFTW	Nimes / Garons		France	94.0	43.75	4.417	Tue Apr 06 09:37:00 PDT 2004	15.0	4.0	47	BEYOND	10000.0	WNW	300	5.144444444444445	5.144444444444445
LFML	Marseille / Marignane		France	6.0	43.45	5.233	Tue Apr 06 09:30:00 PDT 2004	17.0	5.0	45	BEYOND	10000.0	WNW	300	11.832222222222223	11.832222222222223
LFBA	Agen		France	61.0	44.183	0.6	Tue Apr 06 08:00:00 PDT 2004	13.0	8.0	71	BEYOND	10000.0	WNW	290	8.745555555555557	8.745555555555557
LFSI	St-Dizier		France	139.0	48.633	4.9	Tue Apr 06 08:00:00 PDT 2004	7.0	4.0	81	BEYOND	10000.0	SW	230	3.6011111111111114	3.6011111111111114
LFMI	Istres		France	23.0	43.517	4.933	Tue Apr 06 08:00:00 PDT 2004	18.0	2.0	34	BEYOND	10000.0	NW	310	10.28888888888889	10.28888888888889
LFOJ	Orleans		France	126.0	47.983	1.75	Tue Apr 06 08:00:00 PDT 2004	10.0	3.0	61	BEYOND	10000.0	W	270	8.745555555555557	8.745555555555557
LFMK	Carcassonne		France	130.0	43.217	2.317	Tue Apr 06 08:00:00 PDT 2004	14.0	6.0	58	BEYOND	10000.0	WNW	290	10.803333333333335	15.947777777777778
LFRH	Lann Bihoue		France	52.0	47.767	-3.45	Tue Apr 06 08:00:00 PDT 2004	10.0	5.0	71	BEYOND	10000.0	WNW	300	5.144444444444445	5.144444444444445
LFSX	Luxeuil		France	278.0	47.783	6.35	Tue Apr 06 08:00:00 PDT 2004	6.0	3.0	81	AT	6000.0	W	260	4.630000000000001	4.630000000000001
LFSF	Metz / Frescaty		France	190.0	49.083	6.133	Tue Apr 06 08:00:00 PDT 2004	10.0	-1.0	46	BEYOND	10000.0	WNW	290	5.144444444444445	5.144444444444445
LFBD	Bordeaux / Merignac		France	49.0	44.833	-0.7	Tue Apr 06 09:30:00 PDT 2004	12.0	6.0	66	BEYOND	10000.0	W	280	9.774444444444445	9.774444444444445
LFBT	Tarbes / Ossun		France	379.0	43.183	0.0	Tue Apr 06 08:00:00 PDT 2004	12.0	6.0	66	BEYOND	10000.0	WNW	290	10.28888888888889	10.28888888888889
LFLB	Chambery / Aix-Les-Bains		France	235.0	45.65	5.883	Tue Apr 06 08:00:00 PDT 2004	11.0	3.0	57	BEYOND	10000.0	S	180	3.6011111111111114	3.6011111111111114
LFMH	St-Etienne Boutheon		France	404.0	45.533	4.3	Tue Apr 06 08:00:00 PDT 2004	8.0	5.0	81	BEYOND	10000.0	NE	40	3.086666666666667	3.086666666666667
LFBG	Cognac		France	30.0	45.667	-0.317	Tue Apr 06 08:00:00 PDT 2004	13.0	5.0	58	BEYOND	10000.0	W	280	8.231111111111112	8.231111111111112
LFLC	Clermont-Ferrand		France	332.0	45.783	3.167	Tue Apr 06 08:00:00 PDT 2004	9.0	3.0	66	BEYOND	10000.0	W	280	10.28888888888889	16.976666666666667
LFSC	Colmar		France	211.0	47.917	7.4	Tue Apr 06 08:00:00 PDT 2004	9.0	3.0	66	BEYOND	10000.0	S	190	2.5722222222222224	2.5722222222222224
LFJL	Metz-Nancy-Lorraine		France	264.0	48.983	6.25	Tue Apr 06 08:00:00 PDT 2004	8.0	2.0	66	BEYOND	10000.0	WSW	240	9.260000000000002	9.260000000000002
LFLY	Lyon / Bron		France	200.0	45.717	4.95	Tue Apr 06 08:00:00 PDT 2004	11.0	4.0	62	BEYOND	10000.0	N	350	4.630000000000001	4.630000000000001
LFSD	Dijon		France	222.0	47.267	5.083	Tue Apr 06 08:00:00 PDT 2004	9.0	2.0	61	BEYOND	10000.0	WSW	240	5.658888888888889	5.658888888888889
LFMN	Nice		France	4.0	43.65	7.2	Tue Apr 06 09:30:00 PDT 2004	16.0	10.0	67	BEYOND	10000.0	E	100	6.687777777777779	6.687777777777779
LFKJ	Ajaccio		France	6.0	41.917	8.8	Tue Apr 06 09:30:00 PDT 2004	14.0	8.0	67	BEYOND	10000.0	WSW	250	6.173333333333334	6.173333333333334
LFRB	Brest		France	99.0	48.45	-4.417	Tue Apr 06 09:00:00 PDT 2004	9.0	6.0	81	BEYOND	10000.0	NW	320	6.687777777777779	6.687777777777779
LFBH	La Rochelle		France	4.0	46.15	-1.15	Tue Apr 06 08:00:00 PDT 2004	11.0	7.0	76	BEYOND	10000.0	WNW	290	8.231111111111112	8.231111111111112
LFBL	Limoges		France	396.0	45.867	1.183	Tue Apr 06 08:00:00 PDT 2004	8.0	6.0	87	BEYOND	10000.0	WNW	300	4.115555555555556	4.115555555555556
LFBP	Pau		France	188.0	43.383	-0.417	Tue Apr 06 08:00:00 PDT 2004	11.0	8.0	82	BEYOND	10000.0	WSW	250	4.630000000000001	4.630000000000001
LFRK	Caen		France	78.0	49.183	-0.45	Tue Apr 06 08:00:00 PDT 2004	6.0	4.0	87	BEYOND	10000.0	NW	310	8.745555555555557	8.745555555555557
LFQI	Cambrai		France	78.0	50.217	3.15	Tue Apr 06 08:00:00 PDT 2004	10.0	1.0	53	BEYOND	10000.0	W	270	7.716666666666667	7.716666666666667
LFPN	Toussus Le Noble		France	164.0	48.767	1.1	Tue Apr 06 08:00:00 PDT 2004	9.0	3.0	66	BEYOND	10000.0	W	270	7.202222222222223	7.202222222222223
LFMD	Cannes		France	3.0	43.55	6.95	Tue Apr 06 01:00:00 PDT 2004	14.0	1.0	41	BEYOND	10000.0	WSW	250	6.687777777777779	11.832222222222223
LFRD	Dinard		France	65.0	48.583	-2.067	Tue Apr 06 08:00:00 PDT 2004	10.0	3.0	61	BEYOND	10000.0	WNW	290	10.28888888888889	10.28888888888889
